     3.02           OBSERVATION DATA    G                   RINEX VERSION / TYPE
G = GPS  R = GLONASS  E = GALILEO  S = GEO  M = MIXED       COMMENT             
GNSS-SDR            haint               20230131 155003 UTC PGM / RUN BY / DATE 
GPS OBSERVATION DATA FILE GENERATED BY GNSS-SDR             COMMENT             
GNSS-SDR VERSION 0.0.17.git-next-0ff811d00                  COMMENT             
See https://gnss-sdr.org                                    COMMENT             
DEFAULT MARKER NAME                                         MARKER NAME         
haint               CTTC                                    OBSERVER / AGENCY   
GNSS-SDR            Software Receiver   0.0.17.gi           REC # / TYPE / VERS 
Antenna number      Antenna type                            ANT # / TYPE        
        0.0000        0.0000        0.0000                  APPROX POSITION XYZ 
        0.0000        0.0000        0.0000                  ANTENNA: DELTA H/E/N
G    4 C1C L1C D1C S1C                                      SYS / # / OBS TYPES 
DBHZ                                                        SIGNAL STRENGTH UNIT
  2022    08    13    03    14   18.1000000     GPS         TIME OF FIRST OBS   
                                                            END OF HEADER       
> 2022 08 13 03 14 19.0000000  0  6                                             
G02  22810236.529 7 119868620.416 7       609.886 7        45.428               
G05  21397548.062 7 112444878.021 7      1622.650 7        47.158               
G12  21893492.341 7 115051080.911 7      -409.137 7        44.364               
G19  21796727.364 6 114542555.187 6     -2036.106 6        41.583               
G20  20517190.119 7 107818565.061 7      -607.051 7        43.869               
G06  22590238.461 6 118712563.736 6     -1076.417 6        39.893               
> 2022 08 13 03 14 20.0000000  0  6                                             
G02  22810122.328 7 119868013.162 7       605.395 7        45.300               
G05  21397243.020 7 112443259.391 7      1616.806 7        46.877               
G12  21893574.556 7 115051492.336 7      -410.003 7        43.564               
G19  21797119.268 7 114544598.447 7     -2047.425 7        42.057               
G20  20517302.318 7 107819174.531 7      -609.808 7        43.919               
G06  22590447.546 6 118713641.291 6     -1079.273 6        39.485               
> 2022 08 13 03 14 21.0000000  0  6                                             
G02  22810006.841 7 119867406.432 7       605.803 7        44.996               
G05  21396933.314 7 112441641.825 7      1618.206 7        46.893               
G12  21893648.927 7 115051904.963 7      -410.999 7        43.887               
G19  21797503.827 6 114546642.678 6     -2042.721 6        41.911               
G20  20517421.719 7 107819784.969 7      -610.564 7        44.237               
G06  22590645.607 6 118714719.411 6     -1080.036 6        39.863               
> 2022 08 13 03 14 22.0000000  0  6                                             
G02  22809892.282 7 119866799.672 7       604.468 7        44.649               
G05  21396621.499 7 112440024.735 7      1612.757 7        46.765               
G12  21893732.143 7 115052318.209 7      -414.948 7        43.818               
G19  21797894.087 6 114548687.356 6     -2046.556 6        41.131               
G20  20517539.369 7 107820395.802 7      -614.637 7        44.572               
G06  22590857.641 6 118715797.586 6     -1078.860 6        39.051               
> 2022 08 13 03 14 23.0000000  0  6                                             
G02  22809779.082 7 119866197.077 7       601.172 7        44.000               
G05  21396319.745 7 112438412.361 7      1611.569 7        46.427               
G12  21893806.657 7 115052736.274 7      -418.486 7        44.032               
G19  21798284.132 6 114550736.683 6     -2050.843 6        40.517               
G20  20517657.322 7 107821011.262 7      -618.764 7        44.738               
G06  22591041.352 6 118716879.887 6     -1079.453 6        39.143               
> 2022 08 13 03 14 24.0000000  0  6                                             
G02  22809662.236 7 119865599.445 7       598.005 7        43.335               
G05  21396011.987 7 112436805.511 7      1607.305 7        46.930               
G12  21893887.532 7 115053160.026 7      -424.725 7        44.097               
G19  21798677.214 6 114552791.570 6     -2054.715 6        41.335               
G20  20517779.117 7 107821632.166 7      -622.384 7        44.441               
G06  22591262.785 6 118717967.291 6     -1086.642 6        39.329               
> 2022 08 13 03 14 25.0000000  0  6                                             
G02  22809547.392 7 119865001.972 7       595.979 7        43.125               
G05  21395709.482 7 112435199.322 7      1605.151 7        46.873               
G12  21893969.069 7 115053584.551 7      -424.291 7        43.913               
G19  21799063.561 7 114554847.049 7     -2059.739 7        42.082               
G20  20517897.571 7 107822253.640 7      -621.248 7        43.993               
G06  22591452.625 6 118719054.801 6     -1090.130 6        39.068               
> 2022 08 13 03 14 26.0000000  0  6                                             
G02  22809432.066 7 119864405.354 7       595.515 7        44.006               
G05  21395403.726 7 112433594.538 7      1605.437 7        46.588               
G12  21894049.586 7 115054010.608 7      -424.827 7        43.490               
G19  21799465.756 7 114556903.921 7     -2054.991 7        42.381               
G20  20518009.520 7 107822876.418 7      -620.395 7        44.283               
G06  22591677.525 6 118720143.278 6     -1087.511 6        39.171               
> 2022 08 13 03 14 27.0000000  0  6                                             
G02  22809317.132 7 119863812.164 7       590.744 7        43.730               
G05  21395091.304 7 112431993.744 7      1599.417 7        46.593               
G12  21894124.297 7 115054440.781 7      -430.983 7        44.509               
G19  21799854.819 7 114558964.708 7     -2063.176 7        42.213               
G20  20518133.657 7 107823503.092 7      -628.996 7        44.194               
G06  22591881.035 6 118721235.244 6     -1096.175 6        40.028               
> 2022 08 13 03 14 28.0000000  0  6                                             
G02  22809206.005 7 119863219.533 7       596.734 7        43.445               
G05  21394796.661 7 112430394.044 7      1601.354 7        46.108               
G12  21894213.785 7 115054872.175 7      -431.734 7        45.667               
G19  21800237.591 7 114561026.595 7     -2058.740 7        43.087               
G20  20518249.448 7 107824130.784 7      -628.038 7        44.232               
G06  22592094.927 6 118722327.831 6     -1090.722 6        39.532               
> 2022 08 13 03 14 29.0000000  0  6                                             
G02  22809093.001 7 119862627.640 7       588.024 7        43.526               
G05  21394493.352 7 112428795.607 7      1593.477 7        45.821               
G12  21894295.232 7 115055304.978 7      -437.566 7        45.318               
G19  21800634.855 6 114563089.708 6     -2069.978 6        41.931               
G20  20518363.113 7 107824759.652 7      -632.922 7        44.210               
G06  22592296.704 6 118723421.241 6     -1094.515 6        39.381               
> 2022 08 13 03 14 30.0000000  0  6                                             
G02  22808978.657 7 119862049.973 7       567.053 7        44.329               
G05  21394185.416 7 112427211.927 7      1574.424 7        45.848               
G12  21894374.910 7 115055752.650 7      -457.842 7        45.126               
G19  21801035.371 7 114565167.569 7     -2088.163 7        42.351               
G20  20518485.390 7 107825403.191 7      -651.552 7        43.842               
G06  22592496.641 6 118724528.816 6     -1120.084 6        39.447               
> 2022 08 13 03 14 31.0000000  0  6                                             
G02  22808874.087 7 119861485.097 7       563.146 7        45.646               
G05  21393887.896 7 112425641.617 7      1569.624 7        46.394               
G12  21894470.438 7 115056213.814 7      -462.340 7        45.051               
G19  21801432.189 6 114567258.737 6     -2092.037 6        41.592               
G20  20518613.887 7 107826059.962 7      -657.207 7        43.730               
G06  22592725.257 6 118725649.277 6     -1122.119 6        39.455               
> 2022 08 13 03 14 32.0000000  0  6                                             
G02  22808765.998 7 119860918.820 7       566.198 7        45.251               
G05  21393583.819 7 112424070.417 7      1571.632 7        46.002               
G12  21894556.495 7 115056674.202 7      -460.095 7        44.287               
G19  21801828.220 6 114569349.003 6     -2091.764 6        41.165               
G20  20518736.200 7 107826715.793 7      -652.760 7        43.884               
G06  22592929.715 6 118726768.376 6     -1116.036 6        39.884               
> 2022 08 13 03 14 33.0000000  0  6                                             
G02  22808657.604 7 119860351.869 7       570.194 7        44.669               
G05  21393288.802 7 112422499.056 7      1570.511 7        45.808               
G12  21894642.588 7 115057134.573 7      -461.627 7        43.958               
G19  21802216.335 6 114571439.064 6     -2090.162 6        41.123               
G20  20518858.013 7 107827371.371 7      -656.937 7        44.294               
G06  22593144.214 6 118727886.867 6     -1122.223 6        40.982               
> 2022 08 13 03 14 34.0000000  0  6                                             
G02  22808543.743 7 119859785.836 7       564.846 7        43.600               
G05  21392988.298 7 112420929.191 7      1571.070 7        45.168               
G12  21894729.127 7 115057596.556 7      -462.906 7        43.793               
G19  21802621.408 6 114573530.597 6     -2091.412 6        41.098               
G20  20518986.438 7 107828028.335 7      -655.223 7        44.267               
G06  22593355.801 6 118729006.354 6     -1114.721 6        41.553               
> 2022 08 13 03 14 35.0000000  0  6                                             
G02  22808441.872 7 119859218.123 7       570.600 7        44.618               
G05  21392682.112 7 112419358.176 7      1575.586 7        44.907               
G12  21894814.398 7 115058057.507 7      -457.249 7        44.188               
G19  21803021.013 7 114575620.967 7     -2084.806 7        42.050               
G20  20519104.659 7 107828684.050 7      -649.864 7        44.303               
G06  22593577.163 6 118730124.173 6     -1114.715 6        41.363               
> 2022 08 13 03 14 36.0000000  0  6                                             
G02  22808336.212 7 119858637.125 7       590.420 7        45.349               
G05  21392380.859 7 112417774.431 7      1589.323 7        45.418               
G12  21894897.561 7 115058505.870 7      -441.402 7        43.884               
G19  21803403.642 6 114577698.566 6     -2071.298 6        40.832               
G20  20519230.958 7 107829326.955 7      -636.943 7        44.351               
G06  22593780.959 6 118731228.787 6     -1101.822 6        41.862               
> 2022 08 13 03 14 37.0000000  0  6                                             
G02  22808222.422 7 119858044.971 7       595.605 7        44.422               
G05  21392079.766 7 112416180.057 7      1602.010 7        45.964               
G12  21894976.613 7 115058943.704 7      -433.526 7        44.382               
G19  21803801.854 7 114579765.487 7     -2060.760 7        42.094               
G20  20519351.770 7 107829959.144 7      -626.546 7        44.775               
G06  22593994.851 6 118732322.320 6     -1088.942 6        41.356               
> 2022 08 13 03 14 38.0000000  0  6                                             
G02  22808103.950 7 119857445.570 7       601.488 7        43.660               
G05  21391775.706 7 112414579.007 7      1603.056 7        45.319               
G12  21895062.796 7 115059375.014 7      -431.126 7        44.197               
G19  21804196.312 7 114581825.686 7     -2060.509 7        42.574               
G20  20519469.402 7 107830584.550 7      -623.242 7        44.051               
G06  22594203.025 6 118733408.622 6     -1082.376 6        41.068               
> 2022 08 13 03 14 39.0000000  0  6                                             
G02  22807989.732 7 119856844.521 7       601.209 7        43.546               
G05  21391465.697 7 112412976.789 7      1601.591 7        45.391               
G12  21895142.384 7 115059805.286 7      -426.099 7        44.391               
G19  21804582.212 7 114583884.764 7     -2058.620 7        43.117               
G20  20519591.537 7 107831208.710 7      -622.432 7        43.629               
G06  22594410.824 6 118734493.289 6     -1081.274 6        41.070               
> 2022 08 13 03 14 40.0000000  0  6                                             
G02  22807874.476 7 119856240.421 7       603.520 7        43.361               
G05  21391164.300 7 112411372.087 7      1606.226 7        45.083               
G12  21895222.634 7 115060233.233 7      -426.914 7        44.239               
G19  21804985.980 7 114585941.306 7     -2056.597 7        43.124               
G20  20519705.219 7 107831830.319 7      -621.376 7        43.996               
G06  22594605.632 6 118735575.040 6     -1081.613 6        39.618               
> 2022 08 13 03 14 41.0000000  0  6                                             
G02  22807762.313 7 119855635.417 7       604.701 7        44.976               
G05  21390860.937 7 112409767.044 7      1604.410 7        46.635               
G12  21895305.475 7 115060660.913 7      -429.391 7        43.948               
G19  21805367.662 7 114587997.451 7     -2055.783 7        42.701               
G20  20519824.727 7 107832451.463 7      -621.989 7        43.499               
G06  22594816.308 6 118736655.918 6     -1078.002 6        39.971               
> 2022 08 13 03 14 42.0000000  0  6                                             
G02  22807643.448 7 119855030.944 7       605.970 7        44.528               
G05  21390555.627 7 112408163.048 7      1604.142 7        45.189               
G12  21895390.531 7 115061089.787 7      -429.828 7        43.654               
G19  21805762.371 7 114590054.611 7     -2058.589 7        42.312               
G20  20519942.627 7 107833073.562 7      -622.620 7        43.600               
G06  22595017.621 6 118737737.346 6     -1084.982 6        41.175               
> 2022 08 13 03 14 43.0000000  0  6                                             
G02  22807527.835 7 119854427.835 7       602.605 7        45.445               
G05  21390244.617 7 112406560.947 7      1602.391 7        45.477               
G12  21895471.514 7 115061520.686 7      -430.911 7        43.460               
G19  21806150.504 7 114592113.633 7     -2056.973 7        43.586               
G20  20520060.831 7 107833697.505 7      -624.785 7        43.484               
G06  22595228.993 6 118738820.167 6     -1082.382 6        39.845               
> 2022 08 13 03 14 44.0000000  0  6                                             
G02  22807413.295 7 119853826.625 7       598.690 7        45.165               
G05  21389940.558 7 112404961.304 7      1597.011 7        45.698               
G12  21895552.389 7 115061954.177 7      -438.096 7        43.958               
G19  21806551.432 7 114594175.121 7     -2065.318 7        42.958               
G20  20520181.482 7 107834323.775 7      -628.870 7        43.511               
G06  22595431.860 6 118739904.998 6     -1085.997 6        40.400               
> 2022 08 13 03 14 45.0000000  0  6                                             
G02  22807294.627 7 119853231.701 7       593.560 7        44.618               
G05  21389642.145 7 112403368.508 7      1586.958 7        46.035               
G12  21895642.306 7 115062394.609 7      -445.602 7        45.030               
G19  21806940.887 7 114596243.387 7     -2074.286 7        43.060               
G20  20520303.170 7 107834956.792 7      -640.851 7        43.265               
G06  22595634.852 6 118740996.143 6     -1093.110 6        40.607               
> 2022 08 13 03 14 46.0000000  0  6                                             
G02  22807186.233 7 119852645.037 7       584.432 7        44.248               
G05  21389338.282 7 112401784.438 7      1581.162 7        44.449               
G12  21895724.825 7 115062843.953 7      -453.242 7        44.808               
G19  21807339.813 7 114598320.372 7     -2082.384 7        42.880               
G20  20520417.157 7 107835598.497 7      -642.265 7        42.789               
G06  22595850.889 6 118742095.553 6     -1098.668 6        40.880               
> 2022 08 13 03 14 47.0000000  0  6                                             
G02  22807078.751 7 119852062.331 7       580.272 7        45.018               
G05  21389036.099 7 112400204.889 7      1577.677 7        45.105               
G12  21895810.990 7 115063297.910 7      -456.083 7        45.072               
G19  21807735.237 7 114600401.882 7     -2085.400 7        43.586               
G20  20520540.793 7 107836244.615 7      -647.392 7        43.149               
G06  22596050.128 6 118743199.013 6     -1103.856 6        40.793               
> 2022 08 13 03 14 48.0000000  0  6                                             
G02  22806963.674 7 119851482.938 7       580.909 7        44.385               
G05  21388739.652 7 112398629.209 7      1576.362 7        45.581               
G12  21895899.102 7 115063755.870 7      -457.424 7        44.246               
G19  21808128.069 7 114602487.226 7     -2085.116 7        42.734               
G20  20520666.126 7 107836894.482 7      -651.297 7        43.585               
G06  22596269.203 6 118744305.839 6     -1102.959 6        41.166               
> 2022 08 13 03 14 49.0000000  0  6                                             
G02  22806853.744 7 119850901.875 7       581.014 7        44.134               
G05  21388436.129 7 112397052.418 7      1574.756 7        46.192               
G12  21895985.338 7 115064212.791 7      -458.114 7        45.504               
G19  21808530.497 7 114604571.291 7     -2084.607 7        43.879               
G20  20520789.601 7 107837543.121 7      -647.474 7        45.031               
G06  22596479.146 6 118745411.057 6     -1103.455 6        41.126               
> 2022 08 13 03 14 50.0000000  0  6                                             
G02  22806747.692 7 119850321.427 7       582.183 7        43.389               
G05  21388138.860 7 112395476.793 7      1576.067 7        45.509               
G12  21896070.215 7 115064671.018 7      -462.038 7        45.096               
G19  21808917.272 7 114606656.540 7     -2085.876 7        43.998               
G20  20520916.435 7 107838192.819 7      -650.056 7        43.593               
G06  22596679.475 6 118746516.893 6     -1102.751 6        40.896               
> 2022 08 13 03 14 51.0000000  0  6                                             
G02  22806638.691 7 119849740.645 7       583.907 7        44.213               
G05  21387839.482 7 112393901.332 7      1575.410 7        45.243               
G12  21896154.682 7 115065129.605 7      -458.768 7        44.549               
G19  21809318.861 7 114608742.037 7     -2085.629 7        44.127               
G20  20521038.481 7 107838842.632 7      -648.673 7        44.292               
G06  22596898.782 6 118747622.414 6     -1104.575 6        41.157               
> 2022 08 13 03 14 52.0000000  0  6                                             
G02  22806525.455 7 119849155.220 7       587.695 7        45.199               
G05  21387533.493 7 112392321.763 7      1579.689 7        46.209               
G12  21896244.867 7 115065584.148 7      -453.789 7        44.896               
G19  21809715.464 7 114610823.359 7     -2081.722 7        43.480               
G20  20521160.723 7 107839488.300 7      -643.831 7        44.415               
G06  22597110.137 7 118748723.417 7     -1099.430 7        42.064               
> 2022 08 13 03 14 53.0000000  0  6                                             
G02  22806411.200 7 119848570.619 7       583.729 7        46.150               
G05  21387238.279 7 112390743.595 7      1576.972 7        46.366               
G12  21896327.136 7 115066040.264 7      -456.393 7        45.081               
G19  21810110.762 6 114612905.944 6     -2085.779 6        41.688               
G20  20521278.801 7 107840135.212 7      -646.202 7        42.934               
G06  22597319.204 6 118749825.315 6     -1101.938 6        41.112               
> 2022 08 13 03 14 54.0000000  0  6                                             
G02  22806301.002 7 119847985.346 7       585.298 7        44.071               
G05  21386935.971 7 112389165.238 7      1580.268 7        45.984               
G12  21896413.051 7 115066496.327 7      -453.493 7        45.220               
G19  21810503.988 7 114614988.396 7     -2079.449 7        43.176               
G20  20521406.797 7 107840781.896 7      -645.369 7        43.568               
G06  22597529.005 6 118750926.564 6     -1098.959 6        41.293               
> 2022 08 13 03 14 55.0000000  0  6                                             
G02  22806189.839 7 119847398.965 7       585.140 7        45.425               
G05  21386639.649 7 112387586.364 7      1577.694 7        45.241               
G12  21896503.682 7 115066951.998 7      -457.279 7        46.346               
G19  21810895.838 7 114617070.250 7     -2084.518 7        45.429               
G20  20521528.914 7 107841427.910 7      -649.015 7        43.646               
G06  22597731.925 6 118752026.738 6     -1103.041 6        40.354               
> 2022 08 13 03 14 56.0000000  0  6                                             
G02  22806078.854 7 119846816.275 7       578.828 7        45.436               
G05  21386336.644 7 112386011.706 7      1572.591 7        45.226               
G12  21896591.169 7 115067411.932 7      -463.417 7        44.549               
G19  21811292.602 7 114619156.348 7     -2089.279 7        45.051               
G20  20521655.909 7 107842078.068 7      -651.048 7        44.467               
G06  22597948.373 6 118753130.681 6     -1105.641 6        40.786               
> 2022 08 13 03 14 57.0000000  0  6                                             
G02  22805965.582 7 119846238.390 7       576.310 7        44.080               
G05  21386039.428 7 112384442.426 7      1568.497 7        46.164               
G12  21896676.065 7 115067877.373 7      -466.252 7        45.169               
G19  21811691.277 7 114621247.764 7     -2093.103 7        45.665               
G20  20521774.184 7 107842733.467 7      -656.602 7        44.512               
G06  22598159.531 6 118754239.443 6     -1108.807 6        41.267               
> 2022 08 13 03 14 58.0000000  0  6                                             
G02  22805862.067 7 119845662.617 7       575.268 7        44.839               
G05  21385740.301 7 112382875.780 7      1565.972 7        46.792               
G12  21896764.713 7 115068345.604 7      -469.149 7        45.494               
G19  21812092.044 7 114623341.767 7     -2094.544 7        45.245               
G20  20521898.463 7 107843391.438 7      -660.294 7        43.682               
G06  22598367.562 7 118755350.402 7     -1111.576 7        42.162               
> 2022 08 13 03 14 59.0000000  0  6                                             
G02  22805747.973 7 119845086.736 7       578.170 7        43.826               
G05  21385440.208 7 112381309.538 7      1565.352 7        47.569               
G12  21896856.399 7 115068814.397 7      -471.904 7        45.285               
G19  21812491.006 7 114625436.195 7     -2095.371 7        45.217               
G20  20522022.939 7 107844049.740 7      -659.008 7        43.719               
G06  22598579.364 6 118756461.273 6     -1116.437 6        41.162               
> 2022 08 13 03 15 00.0000000  0  6                                             
G02  22805635.005 7 119844515.959 7       570.693 7        44.578               
G05  21385140.563 7 112379748.982 7      1560.758 7        47.463               
G12  21896948.174 7 115069288.985 7      -474.199 7        45.871               
G19  21812890.468 7 114627536.284 7     -2101.483 7        45.242               
G20  20522153.561 7 107844713.618 7      -661.908 7        43.019               
G06  22598794.364 6 118757577.338 6     -1112.816 6        41.881               
> 2022 08 13 03 15 01.0000000  0  6                                             
G02  22805528.685 7 119843943.428 7       572.806 7        45.025               
G05  21384840.738 7 112378187.148 7      1562.141 7        45.562               
G12  21897036.286 7 115069762.393 7      -473.828 7        44.540               
G19  21813290.144 7 114629635.016 7     -2096.298 7        45.436               
G20  20522275.482 7 107845376.147 7      -660.481 7        42.973               
G06  22599006.308 7 118758691.673 7     -1109.329 7        42.307               
> 2022 08 13 03 15 02.0000000  0  6                                             
G02  22805422.114 7 119843369.707 7       573.348 7        45.190               
G05  21384546.025 7 112376624.697 7      1562.082 7        45.298               
G12  21897124.809 7 115070235.354 7      -470.811 7        44.194               
G19  21813688.820 7 114631733.118 7     -2095.453 7        45.313               
G20  20522404.603 7 107846037.919 7      -660.671 7        42.915               
G06  22599221.719 6 118759804.831 6     -1107.515 6        41.996               
> 2022 08 13 03 15 03.0000000  0  6                                             
G02  22805309.825 7 119842801.796 7       560.590 7        44.576               
G05  21384247.576 7 112375068.618 7      1548.407 7        45.125               
G12  21897214.941 7 115070714.788 7      -486.103 7        45.617               
G19  21814083.725 7 114633837.564 7     -2111.341 7        44.622               
G20  20522527.274 7 107846706.034 7      -673.799 7        43.315               
G06  22599425.444 6 118760923.930 6     -1128.999 6        41.737               
> 2022 08 13 03 15 04.0000000  0  6                                             
G02  22805205.309 7 119842247.425 7       553.120 7        44.393               
G05  21383954.900 7 112373526.621 7      1540.967 7        46.306               
G12  21897308.235 7 115071208.428 7      -493.672 7        45.274               
G19  21814496.357 7 114635956.024 7     -2122.470 7        44.886               
G20  20522654.895 7 107847388.079 7      -686.215 7        43.780               
G06  22599647.216 6 118762056.565 6     -1129.147 6        41.013               
> 2022 08 13 03 15 05.0000000  0  6                                             
G02  22805097.666 7 119841690.863 7       559.906 7        45.131               
G05  21383663.420 7 112371982.959 7      1547.155 7        46.085               
G12  21897404.031 7 115071700.513 7      -488.049 7        44.947               
G19  21814899.518 7 114638072.823 7     -2113.389 7        45.280               
G20  20522783.963 7 107848068.391 7      -676.321 7        42.815               
G06  22599868.524 6 118763187.085 6     -1125.235 6        41.868               
> 2022 08 13 03 15 06.0000000  0  6                                             
G02  22804991.149 7 119841131.750 7       558.569 7        44.141               
G05  21383366.169 7 112370437.279 7      1544.123 7        44.594               
G12  21897497.307 7 115072190.711 7      -491.184 7        45.002               
G19  21815295.388 7 114640187.533 7     -2116.061 7        45.072               
G20  20522909.778 7 107848746.591 7      -678.443 7        42.956               
G06  22600067.174 6 118764315.094 6     -1126.201 6        41.576               
> 2022 08 13 03 15 07.0000000  0  6                                             
G02  22804884.471 7 119840571.986 7       560.921 7        43.908               
G05  21383070.651 7 112368891.533 7      1547.369 7        44.989               
G12  21897587.331 7 115072680.963 7      -488.469 7        44.433               
G19  21815692.438 7 114642302.132 7     -2111.859 7        46.271               
G20  20523039.918 7 107849424.606 7      -678.604 7        42.156               
G06  22600287.392 7 118765442.529 7     -1125.669 7        42.557               
> 2022 08 13 03 15 08.0000000  0  6                                             
G02  22804780.098 7 119840009.291 7       564.291 7        43.949               
G05  21382780.512 7 112367343.358 7      1550.734 7        45.092               
G12  21897679.786 7 115073168.918 7      -486.042 7        44.871               
G19  21816098.279 7 114644414.320 7     -2109.026 7        46.400               
G20  20523169.737 7 107850100.136 7      -673.384 7        42.804               
G06  22600495.727 7 118766567.076 7     -1119.826 7        42.333               
> 2022 08 13 03 15 09.0000000  0  6                                             
G02  22804670.882 7 119839444.823 7       562.167 7        43.602               
G05  21382486.495 7 112365793.959 7      1544.466 7        45.852               
G12  21897775.689 7 115073655.753 7      -489.869 7        45.026               
G19  21816496.722 7 114646525.254 7     -2116.650 7        45.693               
G20  20523301.539 7 107850774.323 7      -676.010 7        43.382               
G06  22600717.571 6 118767689.878 6     -1129.065 6        41.992               
> 2022 08 13 03 15 10.0000000  0  6                                             
G02  22804565.437 7 119838886.852 7       555.896 7        43.997               
G05  21382190.334 7 112364251.605 7      1538.408 7        46.012               
G12  21897868.143 7 115074149.789 7      -495.281 7        44.674               
G19  21816901.688 7 114648643.137 7     -2121.716 7        45.334               
G20  20523431.697 7 107851455.440 7      -686.719 7        44.117               
G06  22600924.977 6 118768819.216 6     -1132.424 6        41.343               
> 2022 08 13 03 15 11.0000000  0  6                                             
G02  22804459.474 7 119838330.394 7       558.350 7        44.026               
G05  21381895.763 7 112362711.289 7      1544.015 7        47.133               
G12  21897957.560 7 115074645.984 7      -494.250 7        44.787               
G19  21817303.330 7 114650763.064 7     -2117.366 7        45.727               
G20  20523559.871 7 107852138.532 7      -679.541 7        43.901               
G06  22601141.996 6 118769950.140 6     -1128.982 6        41.436               
> 2022 08 13 03 15 12.0000000  0  6                                             
G02  22804349.365 7 119837769.320 7       562.377 7        43.777               
G05  21381604.855 7 112361166.893 7      1544.656 7        46.864               
G12  21898053.659 7 115075138.216 7      -489.504 7        45.775               
G19  21817705.240 7 114652878.888 7     -2113.452 7        45.918               
G20  20523690.101 7 107852817.440 7      -676.194 7        43.838               
G06  22601350.742 6 118771076.521 6     -1123.860 6        41.616               
> 2022 08 13 03 15 13.0000000  0  6                                             
G02  22804237.326 7 119837206.441 7       561.768 7        44.166               
G05  21381311.178 7 112359621.234 7      1541.566 7        46.406               
G12  21898151.421 7 115075629.307 7      -493.314 7        45.356               
G19  21818105.542 7 114654993.442 7     -2121.403 7        45.322               
G20  20523826.781 7 107853495.001 7      -679.169 7        44.089               
G06  22601561.275 6 118772201.085 6     -1128.219 6        41.623               
> 2022 08 13 03 15 14.0000000  0  6                                             
G02  22804136.724 7 119836643.927 7       566.574 7        42.780               
G05  21381016.500 7 112358076.469 7      1545.861 7        47.787               
G12  21898244.822 7 115076121.409 7      -489.488 7        45.982               
G19  21818508.935 7 114657108.838 7     -2111.222 7        44.728               
G20  20523950.846 7 107854173.352 7      -673.841 7        43.822               
G06  22601775.113 6 118773326.101 6     -1125.935 6        40.950               
