     3.02           OBSERVATION DATA    G                   RINEX VERSION / TYPE
G = GPS  R = GLONASS  E = GALILEO  S = GEO  M = MIXED       COMMENT             
GNSS-SDR            haint               20230131 152455 UTC PGM / RUN BY / DATE 
GPS OBSERVATION DATA FILE GENERATED BY GNSS-SDR             COMMENT             
GNSS-SDR VERSION 0.0.17.git-next-0ff811d00                  COMMENT             
See https://gnss-sdr.org                                    COMMENT             
DEFAULT MARKER NAME                                         MARKER NAME         
haint               CTTC                                    OBSERVER / AGENCY   
GNSS-SDR            Software Receiver   0.0.17.gi           REC # / TYPE / VERS 
Antenna number      Antenna type                            ANT # / TYPE        
        0.0000        0.0000        0.0000                  APPROX POSITION XYZ 
        0.0000        0.0000        0.0000                  ANTENNA: DELTA H/E/N
G    4 C1C L1C D1C S1C                                      SYS / # / OBS TYPES 
DBHZ                                                        SIGNAL STRENGTH UNIT
  2022    08    13    03    14   18.1000000     GPS         TIME OF FIRST OBS   
                                                            END OF HEADER       
> 2022 08 13 03 14 19.0000000  0  6                                             
G05  21397548.062 7 112444878.021 7      1622.650 7        47.159               
G02  22810236.547 7 119868620.416 7       609.884 7        45.427               
G12  21893492.341 7 115051080.911 7      -409.137 7        44.361               
G19  21796727.400 6 114542555.187 6     -2036.100 6        41.585               
G20  20517190.065 7 107818565.061 7      -607.049 7        43.870               
G06  22590238.443 6 118712562.736 6     -1076.335 6        39.892               
> 2022 08 13 03 14 20.0000000  0  6                                             
G05  21397243.020 7 112443259.391 7      1616.806 7        46.879               
G02  22810122.328 7 119868013.162 7       605.395 7        45.301               
G12  21893574.556 7 115051492.336 7      -410.003 7        43.564               
G19  21797119.268 7 114544598.447 7     -2047.425 7        42.057               
G20  20517302.318 7 107819174.531 7      -609.808 7        43.917               
G06  22590447.546 6 118713640.291 6     -1079.273 6        39.486               
> 2022 08 13 03 14 21.0000000  0  6                                             
G05  21396933.278 7 112441641.825 7      1618.206 7        46.897               
G02  22810006.823 7 119867406.432 7       605.802 7        44.994               
G12  21893648.927 7 115051904.963 7      -410.999 7        43.883               
G19  21797503.827 6 114546642.678 6     -2042.721 6        41.910               
G20  20517421.701 7 107819784.969 7      -610.564 7        44.236               
G06  22590645.607 6 118714718.411 6     -1080.037 6        39.859               
> 2022 08 13 03 14 22.0000000  0  6                                             
G05  21396621.499 7 112440024.735 7      1612.757 7        46.764               
G02  22809892.282 7 119866799.672 7       604.468 7        44.650               
G12  21893732.179 7 115052318.209 7      -414.948 7        43.816               
G19  21797894.230 6 114548687.356 6     -2046.535 6        41.125               
G20  20517539.369 7 107820395.802 7      -614.638 7        44.571               
G06  22590857.658 6 118715796.586 6     -1078.862 6        39.051               
> 2022 08 13 03 14 23.0000000  0  6                                             
G05  21396319.727 7 112438412.361 7      1611.569 7        46.427               
G02  22809779.082 7 119866197.077 7       601.170 7        43.999               
G12  21893806.675 7 115052736.274 7      -418.486 7        44.031               
G19  21798284.149 6 114550736.683 6     -2050.841 6        40.515               
G20  20517657.322 7 107821011.262 7      -618.764 7        44.740               
G06  22591041.370 6 118716878.887 6     -1079.455 6        39.167               
> 2022 08 13 03 14 24.0000000  0  6                                             
G05  21396011.987 7 112436805.511 7      1607.306 7        46.931               
G02  22809662.362 7 119865599.445 7       597.990 7        43.336               
G12  21893887.514 7 115053160.026 7      -424.702 7        44.095               
G19  21798677.250 6 114552791.571 6     -2054.746 6        41.341               
G20  20517779.117 7 107821632.166 7      -622.384 7        44.441               
G06  22591262.731 6 118717966.291 6     -1086.658 6        39.342               
> 2022 08 13 03 14 25.0000000  0  6                                             
G05  21395709.482 7 112435199.322 7      1605.150 7        46.870               
G02  22809547.356 7 119865001.972 7       595.934 7        43.124               
G12  21893969.069 7 115053584.551 7      -424.291 7        43.913               
G19  21799063.561 7 114554847.049 7     -2059.740 7        42.084               
G20  20517897.571 7 107822253.640 7      -621.248 7        43.993               
G06  22591452.554 6 118719053.801 6     -1090.129 6        39.075               
> 2022 08 13 03 14 26.0000000  0  6                                             
G05  21395403.726 7 112433594.538 7      1605.437 7        46.591               
G02  22809432.101 7 119864405.354 7       595.517 7        44.004               
G12  21894049.604 7 115054010.608 7      -424.824 7        43.476               
G19  21799465.739 7 114556903.921 7     -2054.991 7        42.383               
G20  20518009.520 7 107822876.418 7      -620.395 7        44.281               
G06  22591677.543 6 118720142.278 6     -1087.512 6        39.172               
> 2022 08 13 03 14 27.0000000  0  6                                             
G05  21395091.304 7 112431993.744 7      1599.417 7        46.594               
G02  22809317.132 7 119863812.164 7       590.744 7        43.732               
G12  21894124.297 7 115054440.781 7      -430.983 7        44.508               
G19  21799854.819 7 114558964.708 7     -2063.176 7        42.215               
G20  20518133.657 7 107823503.092 7      -628.996 7        44.194               
G06  22591881.035 6 118721234.244 6     -1096.175 6        40.031               
> 2022 08 13 03 14 28.0000000  0  6                                             
G05  21394796.661 7 112430394.044 7      1601.354 7        46.107               
G02  22809206.040 7 119863219.533 7       596.798 7        43.445               
G12  21894213.785 7 115054872.175 7      -431.734 7        45.668               
G19  21800237.609 7 114561026.595 7     -2058.740 7        43.088               
G20  20518249.448 7 107824130.784 7      -628.039 7        44.234               
G06  22592094.927 6 118722326.831 6     -1090.722 6        39.529               
> 2022 08 13 03 14 29.0000000  0  6                                             
G05  21394493.370 7 112428795.607 7      1593.477 7        45.821               
G02  22809093.001 7 119862627.640 7       588.022 7        43.524               
G12  21894295.250 7 115055304.978 7      -437.566 7        45.322               
G19  21800634.837 6 114563089.708 6     -2069.978 6        41.925               
G20  20518363.095 7 107824759.652 7      -632.927 7        44.208               
G06  22592296.919 6 118723420.241 6     -1094.367 6        39.387               
> 2022 08 13 03 14 30.0000000  0  6                                             
G05  21394185.416 7 112427211.927 7      1574.423 7        45.848               
G02  22808978.657 7 119862049.973 7       567.055 7        44.329               
G12  21894374.910 7 115055752.650 7      -457.786 7        45.129               
G19  21801035.371 7 114565167.569 7     -2088.163 7        42.349               
G20  20518485.408 7 107825403.191 7      -651.552 7        43.845               
G06  22592496.623 6 118724527.816 6     -1120.084 6        39.458               
> 2022 08 13 03 14 31.0000000  0  6                                             
G05  21393887.896 7 112425641.617 7      1569.624 7        46.391               
G02  22808874.141 7 119861485.097 7       563.148 7        45.649               
G12  21894470.438 7 115056213.814 7      -462.340 7        45.053               
G19  21801432.189 6 114567258.737 6     -2092.036 6        41.592               
G20  20518613.887 7 107826059.962 7      -657.207 7        43.730               
G06  22592725.275 6 118725648.277 6     -1122.117 6        39.445               
> 2022 08 13 03 14 32.0000000  0  6                                             
G05  21393583.819 7 112424070.417 7      1571.632 7        46.006               
G02  22808765.998 7 119860918.820 7       566.199 7        45.251               
G12  21894556.513 7 115056674.202 7      -460.095 7        44.287               
G19  21801828.220 6 114569349.003 6     -2091.764 6        41.165               
G20  20518736.218 7 107826715.793 7      -652.758 7        43.885               
G06  22592929.607 6 118726767.376 6     -1116.033 6        39.887               
> 2022 08 13 03 14 33.0000000  0  6                                             
G05  21393288.784 7 112422499.057 7      1570.511 7        45.810               
G02  22808657.622 7 119860351.869 7       570.186 7        44.671               
G12  21894642.588 7 115057134.573 7      -461.627 7        43.957               
G19  21802216.335 6 114571439.064 6     -2090.162 6        41.123               
G20  20518858.013 7 107827371.370 7      -656.937 7        44.293               
G06  22593144.322 6 118727885.867 6     -1122.269 6        40.983               
> 2022 08 13 03 14 34.0000000  0  6                                             
G05  21392988.298 7 112420929.191 7      1571.071 7        45.168               
G02  22808543.743 7 119859785.836 7       564.846 7        43.600               
G12  21894729.145 7 115057596.556 7      -462.906 7        43.803               
G19  21802621.408 6 114573530.597 6     -2091.412 6        41.100               
G20  20518986.420 7 107828028.335 7      -655.224 7        44.265               
G06  22593355.801 6 118729005.354 6     -1114.727 6        41.554               
> 2022 08 13 03 14 35.0000000  0  6                                             
G05  21392682.112 7 112419358.176 7      1575.587 7        44.904               
G02  22808441.854 7 119859218.123 7       570.601 7        44.618               
G12  21894814.398 7 115058057.507 7      -457.249 7        44.190               
G19  21803021.013 7 114575620.967 7     -2084.807 7        42.050               
G20  20519104.641 7 107828684.050 7      -649.866 7        44.303               
G06  22593577.074 6 118730123.172 6     -1114.688 6        41.365               
> 2022 08 13 03 14 36.0000000  0  6                                             
G05  21392380.823 7 112417774.431 7      1589.322 7        45.412               
G02  22808336.212 7 119858637.125 7       590.418 7        45.350               
G12  21894897.561 7 115058505.870 7      -441.401 7        43.885               
G19  21803403.642 6 114577698.566 6     -2071.297 6        40.840               
G20  20519230.958 7 107829326.955 7      -636.943 7        44.351               
G06  22593780.923 6 118731227.787 6     -1101.750 6        41.864               
> 2022 08 13 03 14 37.0000000  0  6                                             
G05  21392079.766 7 112416180.057 7      1602.010 7        45.962               
G02  22808222.422 7 119858044.971 7       595.600 7        44.423               
G12  21894976.631 7 115058943.704 7      -433.556 7        44.382               
G19  21803801.854 7 114579765.487 7     -2060.760 7        42.093               
G20  20519351.788 7 107829959.144 7      -626.545 7        44.777               
G06  22593994.869 6 118732321.320 6     -1088.946 6        41.347               
> 2022 08 13 03 14 38.0000000  0  6                                             
G05  21391775.724 7 112414579.007 7      1603.057 7        45.319               
G02  22808103.950 7 119857445.570 7       601.488 7        43.660               
G12  21895062.814 7 115059375.014 7      -431.124 7        44.197               
G19  21804196.312 7 114581825.686 7     -2060.506 7        42.572               
G20  20519469.402 7 107830584.550 7      -623.243 7        44.052               
G06  22594203.008 6 118733407.622 6     -1082.373 6        41.069               
> 2022 08 13 03 14 39.0000000  0  6                                             
G05  21391465.643 7 112412976.789 7      1601.591 7        45.390               
G02  22807989.732 7 119856844.521 7       601.209 7        43.546               
G12  21895142.617 7 115059805.286 7      -426.165 7        44.386               
G19  21804582.194 7 114583884.764 7     -2058.620 7        43.121               
G20  20519591.537 7 107831208.710 7      -622.432 7        43.630               
G06  22594410.824 6 118734492.289 6     -1081.274 6        41.069               
> 2022 08 13 03 14 40.0000000  0  6                                             
G05  21391164.264 7 112411372.087 7      1606.213 7        45.087               
G02  22807874.476 7 119856240.421 7       603.520 7        43.360               
G12  21895222.652 7 115060233.233 7      -426.919 7        44.235               
G19  21804985.980 7 114585941.306 7     -2056.598 7        43.123               
G20  20519705.219 7 107831830.319 7      -621.376 7        43.999               
G06  22594605.615 6 118735574.040 6     -1081.608 6        39.618               
> 2022 08 13 03 14 41.0000000  0  6                                             
G05  21390860.955 7 112409767.044 7      1604.409 7        46.634               
G02  22807762.313 7 119855635.417 7       604.701 7        44.974               
G12  21895305.493 7 115060660.913 7      -429.380 7        43.945               
G19  21805367.662 7 114587997.451 7     -2055.783 7        42.699               
G20  20519824.727 7 107832451.463 7      -621.989 7        43.498               
G06  22594816.540 6 118736654.918 6     -1077.933 6        39.966               
> 2022 08 13 03 14 42.0000000  0  6                                             
G05  21390555.627 7 112408163.048 7      1604.142 7        45.186               
G02  22807643.466 7 119855030.944 7       605.970 7        44.530               
G12  21895390.531 7 115061089.787 7      -429.828 7        43.654               
G19  21805762.371 7 114590054.611 7     -2058.588 7        42.308               
G20  20519942.699 7 107833073.562 7      -622.646 7        43.599               
G06  22595017.621 6 118737736.346 6     -1084.983 6        41.174               
> 2022 08 13 03 14 43.0000000  0  6                                             
G05  21390244.617 7 112406560.948 7      1602.391 7        45.477               
G02  22807527.871 7 119854427.835 7       602.605 7        45.453               
G12  21895471.550 7 115061520.686 7      -430.910 7        43.458               
G19  21806150.504 7 114592113.633 7     -2056.976 7        43.593               
G20  20520060.831 7 107833697.505 7      -624.785 7        43.484               
G06  22595228.993 6 118738819.167 6     -1082.383 6        39.846               
> 2022 08 13 03 14 44.0000000  0  6                                             
G05  21389940.558 7 112404961.304 7      1597.011 7        45.698               
G02  22807413.313 7 119853826.625 7       598.696 7        45.167               
G12  21895552.389 7 115061954.177 7      -438.096 7        43.958               
G19  21806551.432 7 114594175.121 7     -2065.316 7        42.957               
G20  20520181.482 7 107834323.775 7      -628.869 7        43.516               
G06  22595431.842 6 118739903.998 6     -1086.020 6        40.397               
> 2022 08 13 03 14 45.0000000  0  6                                             
G05  21389642.145 7 112403368.508 7      1586.958 7        46.036               
G02  22807294.609 7 119853231.701 7       593.569 7        44.617               
G12  21895642.324 7 115062394.609 7      -445.604 7        45.029               
G19  21806940.887 7 114596243.387 7     -2074.286 7        43.062               
G20  20520303.170 7 107834956.792 7      -640.848 7        43.264               
G06  22595634.852 6 118740995.143 6     -1093.110 6        40.606               
> 2022 08 13 03 14 46.0000000  0  6                                             
G05  21389338.300 7 112401784.438 7      1581.162 7        44.449               
G02  22807186.215 7 119852645.037 7       584.432 7        44.248               
G12  21895724.825 7 115062843.953 7      -453.242 7        44.806               
G19  21807339.813 7 114598320.372 7     -2082.385 7        42.879               
G20  20520417.139 7 107835598.497 7      -642.267 7        42.787               
G06  22595850.871 6 118742094.553 6     -1098.671 6        40.880               
> 2022 08 13 03 14 47.0000000  0  6                                             
G05  21389036.099 7 112400204.889 7      1577.675 7        45.103               
G02  22807078.751 7 119852062.331 7       580.272 7        45.013               
G12  21895810.990 7 115063297.910 7      -456.083 7        45.073               
G19  21807735.237 7 114600401.882 7     -2085.399 7        43.586               
G20  20520540.793 7 107836244.615 7      -647.392 7        43.147               
G06  22596050.218 6 118743198.013 6     -1103.819 6        40.790               
> 2022 08 13 03 14 48.0000000  0  6                                             
G05  21388739.652 7 112398629.209 7      1576.362 7        45.584               
G02  22806963.674 7 119851482.938 7       580.909 7        44.384               
G12  21895899.102 7 115063755.870 7      -457.424 7        44.247               
G19  21808128.069 7 114602487.226 7     -2085.115 7        42.735               
G20  20520666.126 7 107836894.482 7      -651.298 7        43.586               
G06  22596269.221 6 118744304.839 6     -1102.963 6        41.180               
> 2022 08 13 03 14 49.0000000  0  6                                             
G05  21388436.129 7 112397052.418 7      1574.756 7        46.191               
G02  22806853.762 7 119850901.875 7       581.014 7        44.126               
G12  21895985.320 7 115064212.791 7      -458.117 7        45.506               
G19  21808530.497 7 114604571.291 7     -2084.607 7        43.877               
G20  20520789.601 7 107837543.121 7      -647.474 7        45.032               
G06  22596479.146 6 118745410.057 6     -1103.454 6        41.126               
> 2022 08 13 03 14 50.0000000  0  6                                             
G05  21388138.860 7 112395476.793 7      1576.067 7        45.509               
G02  22806747.745 7 119850321.427 7       582.183 7        43.385               
G12  21896070.215 7 115064671.018 7      -462.039 7        45.094               
G19  21808917.290 7 114606656.540 7     -2085.876 7        43.999               
G20  20520916.417 7 107838192.819 7      -650.054 7        43.591               
G06  22596679.475 6 118746515.893 6     -1102.755 6        40.897               
> 2022 08 13 03 14 51.0000000  0  6                                             
G05  21387839.500 7 112393901.332 7      1575.407 7        45.240               
G02  22806638.708 7 119849740.645 7       583.906 7        44.213               
G12  21896154.682 7 115065129.605 7      -458.768 7        44.549               
G19  21809318.843 7 114608742.037 7     -2085.628 7        44.126               
G20  20521038.481 7 107838842.632 7      -648.672 7        44.293               
G06  22596898.782 6 118747621.414 6     -1104.575 6        41.157               
> 2022 08 13 03 14 52.0000000  0  6                                             
G05  21387533.493 7 112392321.763 7      1579.688 7        46.208               
G02  22806525.329 7 119849155.220 7       587.686 7        45.208               
G12  21896244.849 7 115065584.148 7      -453.789 7        44.895               
G19  21809715.464 7 114610823.359 7     -2081.722 7        43.485               
G20  20521160.723 7 107839488.300 7      -643.831 7        44.412               
G06  22597110.119 7 118748722.417 7     -1099.431 7        42.067               
> 2022 08 13 03 14 53.0000000  0  6                                             
G05  21387238.279 7 112390743.595 7      1576.972 7        46.365               
G02  22806411.182 7 119848570.619 7       583.729 7        46.147               
G12  21896327.136 7 115066040.264 7      -456.394 7        45.081               
G19  21810110.762 6 114612905.944 6     -2085.779 6        41.685               
G20  20521278.801 7 107840135.212 7      -646.202 7        42.934               
G06  22597319.151 6 118749824.315 6     -1101.932 6        41.126               
> 2022 08 13 03 14 54.0000000  0  6                                             
G05  21386935.989 7 112389165.239 7      1580.255 7        45.983               
G02  22806301.002 7 119847985.346 7       585.299 7        44.072               
G12  21896413.051 7 115066496.327 7      -453.493 7        45.218               
G19  21810504.006 7 114614988.396 7     -2079.449 7        43.178               
G20  20521406.797 7 107840781.896 7      -645.369 7        43.567               
G06  22597529.005 6 118750925.564 6     -1098.959 6        41.294               
> 2022 08 13 03 14 55.0000000  0  6                                             
G05  21386639.649 7 112387586.364 7      1577.694 7        45.242               
G02  22806189.839 7 119847398.965 7       585.140 7        45.422               
G12  21896503.682 7 115066951.998 7      -457.281 7        46.346               
G19  21810895.856 7 114617070.250 7     -2084.521 7        45.427               
G20  20521528.914 7 107841427.910 7      -649.013 7        43.643               
G06  22597731.943 6 118752025.738 6     -1103.037 6        40.358               
> 2022 08 13 03 14 56.0000000  0  6                                             
G05  21386336.662 7 112386011.706 7      1572.590 7        45.227               
G02  22806078.890 7 119846816.275 7       578.826 7        45.439               
G12  21896591.187 7 115067411.932 7      -463.417 7        44.550               
G19  21811292.441 7 114619156.348 7     -2089.309 7        45.064               
G20  20521655.891 7 107842078.068 7      -651.028 7        44.467               
G06  22597948.373 6 118753129.681 6     -1105.641 6        40.792               
> 2022 08 13 03 14 57.0000000  0  6                                             
G05  21386039.428 7 112384442.426 7      1568.495 7        46.164               
G02  22805965.582 7 119846238.390 7       576.312 7        44.080               
G12  21896676.065 7 115067877.373 7      -466.253 7        45.171               
G19  21811691.277 7 114621247.764 7     -2093.085 7        45.670               
G20  20521774.184 7 107842733.467 7      -656.595 7        44.516               
G06  22598159.531 6 118754238.442 6     -1108.811 6        41.272               
> 2022 08 13 03 14 58.0000000  0  6                                             
G05  21385740.283 7 112382875.780 7      1565.955 7        46.791               
G02  22805862.067 7 119845662.617 7       575.267 7        44.838               
G12  21896764.713 7 115068345.604 7      -469.149 7        45.495               
G19  21812092.026 7 114623341.767 7     -2094.543 7        45.244               
G20  20521898.481 7 107843391.438 7      -660.295 7        43.684               
G06  22598367.508 7 118755349.402 7     -1111.644 7        42.164               
> 2022 08 13 03 14 59.0000000  0  6                                             
G05  21385440.208 7 112381309.538 7      1565.352 7        47.568               
G02  22805747.973 7 119845086.736 7       578.170 7        43.827               
G12  21896856.399 7 115068814.397 7      -471.904 7        45.285               
G19  21812491.006 7 114625436.195 7     -2095.371 7        45.221               
G20  20522022.957 7 107844049.740 7      -659.008 7        43.717               
G06  22598579.399 6 118756460.274 6     -1116.434 6        41.160               
> 2022 08 13 03 15 00.0000000  0  6                                             
G05  21385140.563 7 112379748.982 7      1560.758 7        47.457               
G02  22805635.005 7 119844515.959 7       570.693 7        44.580               
G12  21896948.192 7 115069288.985 7      -474.202 7        45.872               
G19  21812890.485 7 114627536.284 7     -2101.482 7        45.243               
G20  20522153.686 7 107844713.618 7      -661.873 7        43.026               
G06  22598794.364 6 118757576.338 6     -1112.816 6        41.874               
> 2022 08 13 03 15 01.0000000  0  6                                             
G05  21384840.738 7 112378187.149 7      1562.142 7        45.565               
G02  22805528.685 7 119843943.428 7       572.805 7        45.024               
G12  21897036.304 7 115069762.393 7      -473.828 7        44.541               
G19  21813290.144 7 114629635.016 7     -2096.298 7        45.439               
G20  20522275.482 7 107845376.147 7      -660.518 7        42.969               
G06  22599006.326 7 118758690.673 7     -1109.322 7        42.307               
> 2022 08 13 03 15 02.0000000  0  6                                             
G05  21384546.043 7 112376624.697 7      1562.086 7        45.296               
G02  22805422.114 7 119843369.707 7       573.348 7        45.190               
G12  21897124.809 7 115070235.354 7      -470.810 7        44.194               
G19  21813688.855 7 114631733.118 7     -2095.457 7        45.305               
G20  20522404.567 7 107846037.919 7      -660.673 7        42.917               
G06  22599221.701 6 118759803.831 6     -1107.514 6        41.994               
> 2022 08 13 03 15 03.0000000  0  6                                             
G05  21384247.576 7 112375068.618 7      1548.407 7        45.124               
G02  22805309.825 7 119842801.796 7       560.590 7        44.576               
G12  21897214.941 7 115070714.788 7      -486.089 7        45.619               
G19  21814083.725 7 114633837.564 7     -2111.344 7        44.618               
G20  20522527.256 7 107846706.034 7      -673.810 7        43.312               
G06  22599425.444 6 118760922.930 6     -1128.997 6        41.725               
> 2022 08 13 03 15 04.0000000  0  6                                             
G05  21383954.900 7 112373526.621 7      1540.967 7        46.305               
G02  22805205.309 7 119842247.425 7       553.120 7        44.393               
G12  21897308.235 7 115071208.428 7      -493.672 7        45.275               
G19  21814496.374 7 114635956.024 7     -2122.470 7        44.889               
G20  20522654.895 7 107847388.079 7      -686.214 7        43.783               
G06  22599647.216 6 118762055.565 6     -1129.210 6        41.009               
> 2022 08 13 03 15 05.0000000  0  6                                             
G05  21383663.438 7 112371982.959 7      1547.157 7        46.084               
G02  22805097.666 7 119841690.863 7       559.906 7        45.131               
G12  21897404.031 7 115071700.513 7      -488.053 7        44.949               
G19  21814899.518 7 114638072.824 7     -2113.389 7        45.280               
G20  20522783.963 7 107848068.391 7      -676.321 7        42.815               
G06  22599868.542 6 118763186.085 6     -1125.235 6        41.869               
> 2022 08 13 03 15 06.0000000  0  6                                             
G05  21383366.169 7 112370437.279 7      1544.123 7        44.594               
G02  22804991.149 7 119841131.750 7       558.571 7        44.144               
G12  21897497.307 7 115072190.711 7      -491.184 7        45.000               
G19  21815295.406 7 114640187.533 7     -2116.061 7        45.071               
G20  20522909.778 7 107848746.591 7      -678.442 7        42.956               
G06  22600067.138 6 118764314.094 6     -1126.205 6        41.575               
> 2022 08 13 03 15 07.0000000  0  6                                             
G05  21383070.651 7 112368891.533 7      1547.369 7        44.988               
G02  22804884.489 7 119840571.985 7       560.920 7        43.908               
G12  21897587.313 7 115072680.963 7      -488.486 7        44.430               
G19  21815692.438 7 114642302.132 7     -2111.856 7        46.270               
G20  20523039.936 7 107849424.606 7      -678.606 7        42.159               
G06  22600287.392 7 118765441.529 7     -1125.669 7        42.557               
> 2022 08 13 03 15 08.0000000  0  6                                             
G05  21382780.494 7 112367343.358 7      1550.734 7        45.088               
G02  22804780.116 7 119840009.291 7       564.286 7        43.951               
G12  21897679.786 7 115073168.918 7      -486.024 7        44.869               
G19  21816098.261 7 114644414.320 7     -2109.029 7        46.402               
G20  20523169.737 7 107850100.136 7      -673.384 7        42.801               
G06  22600495.727 7 118766566.076 7     -1119.826 7        42.330               
> 2022 08 13 03 15 09.0000000  0  6                                             
G05  21382486.495 7 112365793.959 7      1544.466 7        45.852               
G02  22804670.864 7 119839444.823 7       562.167 7        43.606               
G12  21897775.689 7 115073655.753 7      -489.870 7        45.029               
G19  21816496.740 7 114646525.254 7     -2116.650 7        45.695               
G20  20523301.503 7 107850774.323 7      -676.009 7        43.378               
G06  22600717.589 6 118767688.878 6     -1129.065 6        41.989               
> 2022 08 13 03 15 10.0000000  0  6                                             
G05  21382190.334 7 112364251.605 7      1538.405 7        46.012               
G02  22804565.419 7 119838886.852 7       555.890 7        43.999               
G12  21897868.143 7 115074149.789 7      -495.281 7        44.675               
G19  21816901.706 7 114648643.137 7     -2121.716 7        45.336               
G20  20523431.697 7 107851455.440 7      -686.721 7        44.118               
G06  22600924.959 6 118768818.216 6     -1132.424 6        41.341               
> 2022 08 13 03 15 11.0000000  0  6                                             
G05  21381895.745 7 112362711.289 7      1544.017 7        47.134               
G02  22804459.474 7 119838330.394 7       558.350 7        44.025               
G12  21897957.452 7 115074645.984 7      -494.249 7        44.787               
G19  21817303.330 7 114650763.064 7     -2117.366 7        45.727               
G20  20523559.871 7 107852138.532 7      -679.539 7        43.901               
G06  22601141.996 6 118769949.140 6     -1128.982 6        41.434               
> 2022 08 13 03 15 12.0000000  0  6                                             
G05  21381604.855 7 112361166.893 7      1544.656 7        46.863               
G02  22804349.365 7 119837769.320 7       562.370 7        43.777               
G12  21898053.659 7 115075138.216 7      -489.504 7        45.777               
G19  21817705.222 7 114652878.888 7     -2113.454 7        45.909               
G20  20523690.083 7 107852817.440 7      -676.196 7        43.840               
G06  22601350.795 6 118771075.521 6     -1123.858 6        41.613               
> 2022 08 13 03 15 13.0000000  0  6                                             
G05  21381311.178 7 112359621.234 7      1541.566 7        46.406               
G02  22804237.308 7 119837206.441 7       561.768 7        44.165               
G12  21898151.421 7 115075629.307 7      -493.314 7        45.357               
G19  21818105.560 7 114654993.442 7     -2121.371 7        45.319               
G20  20523826.781 7 107853495.001 7      -679.169 7        44.090               
G06  22601561.275 6 118772200.085 6     -1128.219 6        41.621               
> 2022 08 13 03 15 14.0000000  0  6                                             
G05  21381016.500 7 112358076.470 7      1545.861 7        47.786               
G02  22804136.706 7 119836643.927 7       566.574 7        42.780               
G12  21898244.751 7 115076121.408 7      -489.459 7        45.984               
G19  21818508.935 7 114657108.838 7     -2111.222 7        44.726               
G20  20523950.846 7 107854173.352 7      -673.841 7        43.821               
G06  22601775.131 6 118773325.101 6     -1125.939 6        40.946               
