     3.02           OBSERVATION DATA    G                   RINEX VERSION / TYPE
G = GPS  R = GLONASS  E = GALILEO  S = GEO  M = MIXED       COMMENT             
GNSS-SDR            haint               20230131 155751 UTC PGM / RUN BY / DATE 
GPS OBSERVATION DATA FILE GENERATED BY GNSS-SDR             COMMENT             
GNSS-SDR VERSION 0.0.17.git-next-0ff811d00                  COMMENT             
See https://gnss-sdr.org                                    COMMENT             
DEFAULT MARKER NAME                                         MARKER NAME         
haint               CTTC                                    OBSERVER / AGENCY   
GNSS-SDR            Software Receiver   0.0.17.gi           REC # / TYPE / VERS 
Antenna number      Antenna type                            ANT # / TYPE        
        0.0000        0.0000        0.0000                  APPROX POSITION XYZ 
        0.0000        0.0000        0.0000                  ANTENNA: DELTA H/E/N
G    4 C1C L1C D1C S1C                                      SYS / # / OBS TYPES 
DBHZ                                                        SIGNAL STRENGTH UNIT
  2022    08    13    03    14   18.1000000     GPS         TIME OF FIRST OBS   
                                                            END OF HEADER       
> 2022 08 13 03 14 19.0000000  0  5                                             
G05  21397548.062 7 112444878.021 7      1622.650 7        47.158               
G06  22590238.443 6 118712563.736 6     -1076.335 6        39.890               
G12  21893492.341 7 115051080.911 7      -409.137 7        44.361               
G19  21796727.400 6 114542555.187 6     -2036.100 6        41.585               
G20  20517190.047 7 107818565.061 7      -607.050 7        43.868               
> 2022 08 13 03 14 20.0000000  0  5                                             
G05  21397243.020 7 112443259.391 7      1616.806 7        46.877               
G06  22590447.546 6 118713641.291 6     -1079.278 6        39.491               
G12  21893574.556 7 115051492.336 7      -410.003 7        43.564               
G19  21797119.268 7 114544598.447 7     -2047.425 7        42.057               
G20  20517302.318 7 107819174.531 7      -609.808 7        43.916               
> 2022 08 13 03 14 21.0000000  0  5                                             
G05  21396933.332 7 112441641.825 7      1618.205 7        46.895               
G06  22590645.625 6 118714719.411 6     -1080.041 6        39.856               
G12  21893648.927 7 115051904.963 7      -410.999 7        43.883               
G19  21797503.827 6 114546642.678 6     -2042.721 6        41.910               
G20  20517421.719 7 107819784.969 7      -610.565 7        44.231               
> 2022 08 13 03 14 22.0000000  0  5                                             
G05  21396621.499 7 112440024.735 7      1612.757 7        46.764               
G06  22590857.641 6 118715797.586 6     -1078.860 6        39.052               
G12  21893732.179 7 115052318.209 7      -414.948 7        43.816               
G19  21797894.230 6 114548687.356 6     -2046.535 6        41.125               
G20  20517539.369 7 107820395.802 7      -614.638 7        44.571               
> 2022 08 13 03 14 23.0000000  0  5                                             
G05  21396319.745 7 112438412.361 7      1611.569 7        46.424               
G06  22591041.370 6 118716879.887 6     -1079.454 6        39.164               
G12  21893806.675 7 115052736.274 7      -418.486 7        44.031               
G19  21798284.149 6 114550736.683 6     -2050.841 6        40.515               
G20  20517657.340 7 107821011.262 7      -618.764 7        44.739               
> 2022 08 13 03 14 24.0000000  0  5                                             
G05  21396011.987 7 112436805.511 7      1607.304 7        46.930               
G06  22591262.785 6 118717967.291 6     -1086.641 6        39.341               
G12  21893887.514 7 115053160.026 7      -424.702 7        44.095               
G19  21798677.250 6 114552791.571 6     -2054.746 6        41.341               
G20  20517779.082 7 107821632.166 7      -622.384 7        44.441               
> 2022 08 13 03 14 25.0000000  0  5                                             
G05  21395709.482 7 112435199.322 7      1605.149 7        46.871               
G06  22591452.608 6 118719054.801 6     -1090.132 6        39.070               
G12  21893969.069 7 115053584.551 7      -424.291 7        43.913               
G19  21799063.561 7 114554847.049 7     -2059.740 7        42.084               
G20  20517897.571 7 107822253.640 7      -621.248 7        43.990               
> 2022 08 13 03 14 26.0000000  0  5                                             
G05  21395403.726 7 112433594.538 7      1605.437 7        46.590               
G06  22591677.543 6 118720143.278 6     -1087.510 6        39.172               
G12  21894049.604 7 115054010.608 7      -424.824 7        43.476               
G19  21799465.739 7 114556903.921 7     -2054.991 7        42.383               
G20  20518009.520 7 107822876.418 7      -620.395 7        44.284               
> 2022 08 13 03 14 27.0000000  0  5                                             
G05  21395091.304 7 112431993.744 7      1599.417 7        46.592               
G06  22591881.035 6 118721235.244 6     -1096.174 6        40.028               
G12  21894124.297 7 115054440.781 7      -430.983 7        44.508               
G19  21799854.819 7 114558964.708 7     -2063.176 7        42.215               
G20  20518133.639 7 107823503.092 7      -628.996 7        44.194               
> 2022 08 13 03 14 28.0000000  0  5                                             
G05  21394796.661 7 112430394.044 7      1601.354 7        46.106               
G06  22592094.838 6 118722327.831 6     -1090.715 6        39.532               
G12  21894213.785 7 115054872.175 7      -431.734 7        45.668               
G19  21800237.609 7 114561026.595 7     -2058.740 7        43.088               
G20  20518249.448 7 107824130.784 7      -628.039 7        44.234               
> 2022 08 13 03 14 29.0000000  0  5                                             
G05  21394493.370 7 112428795.607 7      1593.478 7        45.821               
G06  22592296.847 6 118723421.241 6     -1094.469 6        39.382               
G12  21894295.250 7 115055304.978 7      -437.566 7        45.322               
G19  21800634.837 6 114563089.708 6     -2069.978 6        41.925               
G20  20518363.113 7 107824759.652 7      -632.924 7        44.210               
> 2022 08 13 03 14 30.0000000  0  5                                             
G05  21394185.416 7 112427211.927 7      1574.423 7        45.848               
G06  22592496.641 6 118724528.816 6     -1120.082 6        39.454               
G12  21894374.910 7 115055752.650 7      -457.786 7        45.129               
G19  21801035.371 7 114565167.569 7     -2088.163 7        42.349               
G20  20518485.390 7 107825403.191 7      -651.552 7        43.843               
> 2022 08 13 03 14 31.0000000  0  5                                             
G05  21393887.896 7 112425641.617 7      1569.624 7        46.392               
G06  22592725.114 6 118725649.277 6     -1122.109 6        39.443               
G12  21894470.438 7 115056213.814 7      -462.340 7        45.053               
G19  21801432.189 6 114567258.737 6     -2092.036 6        41.592               
G20  20518613.851 7 107826059.962 7      -657.204 7        43.733               
> 2022 08 13 03 14 32.0000000  0  5                                             
G05  21393583.819 7 112424070.417 7      1571.632 7        46.007               
G06  22592929.643 6 118726768.376 6     -1116.035 6        39.893               
G12  21894556.513 7 115056674.202 7      -460.095 7        44.287               
G19  21801828.220 6 114569349.003 6     -2091.764 6        41.165               
G20  20518736.218 7 107826715.793 7      -652.761 7        43.885               
> 2022 08 13 03 14 33.0000000  0  5                                             
G05  21393288.784 7 112422499.056 7      1570.510 7        45.810               
G06  22593144.536 6 118727886.867 6     -1122.276 6        40.972               
G12  21894642.588 7 115057134.573 7      -461.627 7        43.957               
G19  21802216.335 6 114571439.064 6     -2090.162 6        41.123               
G20  20518858.013 7 107827371.371 7      -656.937 7        44.294               
> 2022 08 13 03 14 34.0000000  0  5                                             
G05  21392988.298 7 112420929.191 7      1571.071 7        45.169               
G06  22593356.105 6 118729006.354 6     -1114.697 6        41.549               
G12  21894729.145 7 115057596.556 7      -462.906 7        43.803               
G19  21802621.408 6 114573530.597 6     -2091.412 6        41.100               
G20  20518986.384 7 107828028.335 7      -655.231 7        44.259               
> 2022 08 13 03 14 35.0000000  0  5                                             
G05  21392682.112 7 112419358.176 7      1575.587 7        44.907               
G06  22593577.163 6 118730124.172 6     -1114.721 6        41.365               
G12  21894814.398 7 115058057.507 7      -457.249 7        44.190               
G19  21803021.013 7 114575620.967 7     -2084.807 7        42.050               
G20  20519104.624 7 107828684.050 7      -649.863 7        44.300               
> 2022 08 13 03 14 36.0000000  0  5                                             
G05  21392380.823 7 112417774.431 7      1589.322 7        45.413               
G06  22593780.959 6 118731228.787 6     -1101.822 6        41.863               
G12  21894897.561 7 115058505.870 7      -441.401 7        43.885               
G19  21803403.642 6 114577698.566 6     -2071.297 6        40.840               
G20  20519230.958 7 107829326.955 7      -636.955 7        44.352               
> 2022 08 13 03 14 37.0000000  0  5                                             
G05  21392079.766 7 112416180.057 7      1602.010 7        45.962               
G06  22593994.851 6 118732322.320 6     -1088.942 6        41.357               
G12  21894976.631 7 115058943.704 7      -433.556 7        44.382               
G19  21803801.854 7 114579765.487 7     -2060.760 7        42.093               
G20  20519351.788 7 107829959.144 7      -626.544 7        44.779               
> 2022 08 13 03 14 38.0000000  0  5                                             
G05  21391775.724 7 112414579.007 7      1603.056 7        45.320               
G06  22594203.025 6 118733408.622 6     -1082.370 6        41.069               
G12  21895062.814 7 115059375.014 7      -431.124 7        44.197               
G19  21804196.312 7 114581825.686 7     -2060.506 7        42.572               
G20  20519469.402 7 107830584.550 7      -623.243 7        44.054               
> 2022 08 13 03 14 39.0000000  0  5                                             
G05  21391465.679 7 112412976.789 7      1601.592 7        45.391               
G06  22594410.789 6 118734493.289 6     -1081.224 6        41.073               
G12  21895142.617 7 115059805.286 7      -426.165 7        44.386               
G19  21804582.194 7 114583884.764 7     -2058.620 7        43.121               
G20  20519591.537 7 107831208.710 7      -622.432 7        43.628               
> 2022 08 13 03 14 40.0000000  0  5                                             
G05  21391164.353 7 112411372.087 7      1606.227 7        45.085               
G06  22594605.668 6 118735575.040 6     -1081.620 6        39.619               
G12  21895222.652 7 115060233.233 7      -426.919 7        44.235               
G19  21804985.980 7 114585941.306 7     -2056.598 7        43.123               
G20  20519705.219 7 107831830.319 7      -621.377 7        43.999               
> 2022 08 13 03 14 41.0000000  0  5                                             
G05  21390860.920 7 112409767.044 7      1604.420 7        46.637               
G06  22594816.362 6 118736655.918 6     -1078.008 6        39.970               
G12  21895305.493 7 115060660.913 7      -429.380 7        43.945               
G19  21805367.662 7 114587997.451 7     -2055.783 7        42.699               
G20  20519824.727 7 107832451.463 7      -621.988 7        43.498               
> 2022 08 13 03 14 42.0000000  0  5                                             
G05  21390555.627 7 112408163.048 7      1604.142 7        45.190               
G06  22595017.585 6 118737737.346 6     -1084.977 6        41.177               
G12  21895390.531 7 115061089.787 7      -429.828 7        43.654               
G19  21805762.371 7 114590054.611 7     -2058.588 7        42.308               
G20  20519942.699 7 107833073.562 7      -622.646 7        43.599               
> 2022 08 13 03 14 43.0000000  0  5                                             
G05  21390244.617 7 112406560.948 7      1602.391 7        45.475               
G06  22595229.047 6 118738820.167 6     -1082.380 6        39.838               
G12  21895471.550 7 115061520.686 7      -430.910 7        43.458               
G19  21806150.504 7 114592113.633 7     -2056.976 7        43.593               
G20  20520060.813 7 107833697.505 7      -624.786 7        43.483               
> 2022 08 13 03 14 44.0000000  0  5                                             
G05  21389940.558 7 112404961.304 7      1597.010 7        45.697               
G06  22595431.860 6 118739904.998 6     -1085.997 6        40.397               
G12  21895552.389 7 115061954.177 7      -438.096 7        43.958               
G19  21806551.432 7 114594175.121 7     -2065.316 7        42.957               
G20  20520181.500 7 107834323.775 7      -628.870 7        43.514               
> 2022 08 13 03 14 45.0000000  0  5                                             
G05  21389642.145 7 112403368.508 7      1586.958 7        46.034               
G06  22595634.852 6 118740996.143 6     -1093.196 6        40.609               
G12  21895642.324 7 115062394.609 7      -445.604 7        45.029               
G19  21806940.887 7 114596243.387 7     -2074.286 7        43.062               
G20  20520303.170 7 107834956.792 7      -640.848 7        43.264               
> 2022 08 13 03 14 46.0000000  0  5                                             
G05  21389338.300 7 112401784.438 7      1581.162 7        44.449               
G06  22595850.889 6 118742095.553 6     -1098.672 6        40.880               
G12  21895724.825 7 115062843.953 7      -453.242 7        44.806               
G19  21807339.813 7 114598320.372 7     -2082.385 7        42.879               
G20  20520417.139 7 107835598.497 7      -642.274 7        42.787               
> 2022 08 13 03 14 47.0000000  0  5                                             
G05  21389036.099 7 112400204.889 7      1577.677 7        45.105               
G06  22596050.128 6 118743199.013 6     -1103.860 6        40.793               
G12  21895810.990 7 115063297.910 7      -456.083 7        45.073               
G19  21807735.237 7 114600401.882 7     -2085.399 7        43.586               
G20  20520540.793 7 107836244.615 7      -647.392 7        43.148               
> 2022 08 13 03 14 48.0000000  0  6                                             
G05  21388739.652 7 112398629.209 7      1576.362 7        45.581               
G06  22596269.203 6 118744305.839 6     -1102.958 6        41.164               
G12  21895899.102 7 115063755.870 7      -457.424 7        44.247               
G02  22806963.800 7 119851404.938 7       580.873 7        44.383               
G19  21808128.069 7 114602487.226 7     -2085.115 7        42.735               
G20  20520666.126 7 107836894.482 7      -651.296 7        43.589               
> 2022 08 13 03 14 49.0000000  0  6                                             
G05  21388436.129 7 112397052.418 7      1574.756 7        46.191               
G06  22596479.146 6 118745411.057 6     -1103.455 6        41.125               
G12  21895985.320 7 115064212.791 7      -458.117 7        45.506               
G02  22806853.762 7 119850823.875 7       581.014 7        44.127               
G19  21808530.497 7 114604571.291 7     -2084.607 7        43.877               
G20  20520789.601 7 107837543.121 7      -647.474 7        45.033               
> 2022 08 13 03 14 50.0000000  0  6                                             
G05  21388138.860 7 112395476.793 7      1576.067 7        45.510               
G06  22596679.475 6 118746516.893 6     -1102.751 6        40.898               
G12  21896070.215 7 115064671.018 7      -462.039 7        45.094               
G02  22806747.745 7 119850243.427 7       582.183 7        43.385               
G19  21808917.290 7 114606656.540 7     -2085.876 7        43.999               
G20  20520916.417 7 107838192.819 7      -650.054 7        43.592               
> 2022 08 13 03 14 51.0000000  0  6                                             
G05  21387839.411 7 112393901.332 7      1575.412 7        45.238               
G06  22596898.800 6 118747622.414 6     -1104.574 6        41.160               
G12  21896154.682 7 115065129.605 7      -458.768 7        44.549               
G02  22806638.691 7 119849662.645 7       583.907 7        44.212               
G19  21809318.843 7 114608742.037 7     -2085.628 7        44.126               
G20  20521038.481 7 107838842.632 7      -648.673 7        44.293               
> 2022 08 13 03 14 52.0000000  0  6                                             
G05  21387533.493 7 112392321.763 7      1579.686 7        46.207               
G06  22597110.119 7 118748723.417 7     -1099.432 7        42.066               
G12  21896244.849 7 115065584.148 7      -453.789 7        44.895               
G02  22806525.329 7 119849077.220 7       587.682 7        45.206               
G19  21809715.464 7 114610823.359 7     -2081.722 7        43.485               
G20  20521160.723 7 107839488.300 7      -643.831 7        44.416               
> 2022 08 13 03 14 53.0000000  0  6                                             
G05  21387238.279 7 112390743.595 7      1576.972 7        46.365               
G06  22597319.151 6 118749825.315 6     -1101.932 6        41.125               
G12  21896327.136 7 115066040.264 7      -456.394 7        45.081               
G02  22806411.200 7 119848492.619 7       583.729 7        46.147               
G19  21810110.762 6 114612905.944 6     -2085.779 6        41.685               
G20  20521278.819 7 107840135.212 7      -646.202 7        42.935               
> 2022 08 13 03 14 54.0000000  0  6                                             
G05  21386936.060 7 112389165.238 7      1580.250 7        45.981               
G06  22597529.005 6 118750926.564 6     -1098.959 6        41.295               
G12  21896413.051 7 115066496.327 7      -453.493 7        45.218               
G02  22806301.002 7 119847907.346 7       585.298 7        44.072               
G19  21810504.006 7 114614988.396 7     -2079.449 7        43.178               
G20  20521406.797 7 107840781.896 7      -645.367 7        43.568               
> 2022 08 13 03 14 55.0000000  0  6                                             
G05  21386639.649 7 112387586.364 7      1577.689 7        45.241               
G06  22597731.925 6 118752026.738 6     -1103.040 6        40.352               
G12  21896503.682 7 115066951.998 7      -457.281 7        46.346               
G02  22806189.839 7 119847320.965 7       585.140 7        45.422               
G19  21810895.856 7 114617070.250 7     -2084.521 7        45.427               
G20  20521528.914 7 107841427.910 7      -649.014 7        43.644               
> 2022 08 13 03 14 56.0000000  0  6                                             
G05  21386336.662 7 112386011.706 7      1572.588 7        45.227               
G06  22597948.373 6 118753130.681 6     -1105.641 6        40.790               
G12  21896591.187 7 115067411.932 7      -463.417 7        44.550               
G02  22806078.854 7 119846738.275 7       578.828 7        45.437               
G19  21811292.441 7 114619156.348 7     -2089.309 7        45.064               
G20  20521655.891 7 107842078.068 7      -651.028 7        44.467               
> 2022 08 13 03 14 57.0000000  0  6                                             
G05  21386039.428 7 112384442.426 7      1568.495 7        46.165               
G06  22598159.531 6 118754239.443 6     -1108.812 6        41.270               
G12  21896676.065 7 115067877.373 7      -466.253 7        45.171               
G02  22805965.582 7 119846160.390 7       576.312 7        44.084               
G19  21811691.277 7 114621247.764 7     -2093.085 7        45.670               
G20  20521774.184 7 107842733.467 7      -656.602 7        44.513               
> 2022 08 13 03 14 58.0000000  0  6                                             
G05  21385740.301 7 112382875.780 7      1565.972 7        46.792               
G06  22598367.526 7 118755350.402 7     -1111.574 7        42.162               
G12  21896764.713 7 115068345.604 7      -469.149 7        45.495               
G02  22805862.031 7 119845584.616 7       575.264 7        44.838               
G19  21812092.026 7 114623341.767 7     -2094.543 7        45.244               
G20  20521898.517 7 107843391.438 7      -660.300 7        43.684               
> 2022 08 13 03 14 59.0000000  0  6                                             
G05  21385440.208 7 112381309.538 7      1565.352 7        47.569               
G06  22598579.381 6 118756461.273 6     -1116.384 6        41.163               
G12  21896856.399 7 115068814.397 7      -471.904 7        45.285               
G02  22805747.973 7 119845008.736 7       578.170 7        43.829               
G19  21812491.006 7 114625436.195 7     -2095.371 7        45.221               
G20  20522022.921 7 107844049.740 7      -659.006 7        43.717               
> 2022 08 13 03 15 00.0000000  0  6                                             
G05  21385140.563 7 112379748.982 7      1560.757 7        47.459               
G06  22598794.364 6 118757577.338 6     -1112.817 6        41.881               
G12  21896948.192 7 115069288.985 7      -474.202 7        45.872               
G02  22805635.005 7 119844437.959 7       570.693 7        44.579               
G19  21812890.485 7 114627536.284 7     -2101.482 7        45.243               
G20  20522153.543 7 107844713.618 7      -661.908 7        43.019               
> 2022 08 13 03 15 01.0000000  0  6                                             
G05  21384840.721 7 112378187.148 7      1562.142 7        45.565               
G06  22599006.308 7 118758691.673 7     -1109.329 7        42.307               
G12  21897036.304 7 115069762.393 7      -473.828 7        44.541               
G02  22805528.685 7 119843865.428 7       572.805 7        45.025               
G19  21813290.144 7 114629635.016 7     -2096.298 7        45.439               
G20  20522275.482 7 107845376.147 7      -660.481 7        42.972               
> 2022 08 13 03 15 02.0000000  0  6                                             
G05  21384546.043 7 112376624.697 7      1562.086 7        45.295               
G06  22599221.666 6 118759804.831 6     -1107.508 6        41.995               
G12  21897124.809 7 115070235.354 7      -470.810 7        44.194               
G02  22805422.114 7 119843291.707 7       573.346 7        45.194               
G19  21813688.855 7 114631733.118 7     -2095.457 7        45.305               
G20  20522404.603 7 107846037.919 7      -660.673 7        42.915               
> 2022 08 13 03 15 03.0000000  0  6                                             
G05  21384247.576 7 112375068.618 7      1548.407 7        45.125               
G06  22599425.444 6 118760923.930 6     -1128.996 6        41.724               
G12  21897214.941 7 115070714.788 7      -486.089 7        45.619               
G02  22805309.825 7 119842723.796 7       560.589 7        44.576               
G19  21814083.725 7 114633837.564 7     -2111.344 7        44.618               
G20  20522527.238 7 107846706.034 7      -673.810 7        43.315               
> 2022 08 13 03 15 04.0000000  0  6                                             
G05  21383954.900 7 112373526.621 7      1540.967 7        46.305               
G06  22599647.216 6 118762056.565 6     -1129.210 6        41.005               
G12  21897308.235 7 115071208.428 7      -493.672 7        45.275               
G02  22805205.309 7 119842169.425 7       553.120 7        44.394               
G19  21814496.374 7 114635956.024 7     -2122.470 7        44.889               
G20  20522654.912 7 107847388.079 7      -686.215 7        43.779               
> 2022 08 13 03 15 05.0000000  0  6                                             
G05  21383663.420 7 112371982.959 7      1547.155 7        46.084               
G06  22599868.560 6 118763187.085 6     -1125.236 6        41.869               
G12  21897404.031 7 115071700.513 7      -488.053 7        44.949               
G02  22805097.666 7 119841612.863 7       559.906 7        45.131               
G19  21814899.518 7 114638072.824 7     -2113.389 7        45.280               
G20  20522783.963 7 107848068.391 7      -676.322 7        42.815               
> 2022 08 13 03 15 06.0000000  0  6                                             
G05  21383366.169 7 112370437.279 7      1544.123 7        44.594               
G06  22600067.174 6 118764315.094 6     -1126.202 6        41.579               
G12  21897497.307 7 115072190.711 7      -491.184 7        45.000               
G02  22804991.131 7 119841053.750 7       558.569 7        44.142               
G19  21815295.406 7 114640187.533 7     -2116.061 7        45.071               
G20  20522909.635 7 107848746.591 7      -678.483 7        42.953               
> 2022 08 13 03 15 07.0000000  0  6                                             
G05  21383070.651 7 112368891.533 7      1547.369 7        44.988               
G06  22600287.321 7 118765442.529 7     -1125.727 7        42.565               
G12  21897587.313 7 115072680.963 7      -488.486 7        44.430               
G02  22804884.471 7 119840493.985 7       560.920 7        43.907               
G19  21815692.438 7 114642302.132 7     -2111.856 7        46.270               
G20  20523039.936 7 107849424.606 7      -678.606 7        42.157               
> 2022 08 13 03 15 08.0000000  0  6                                             
G05  21382780.512 7 112367343.358 7      1550.734 7        45.091               
G06  22600495.727 7 118766567.076 7     -1119.826 7        42.333               
G12  21897679.786 7 115073168.918 7      -486.024 7        44.869               
G02  22804780.098 7 119839931.291 7       564.290 7        43.954               
G19  21816098.261 7 114644414.320 7     -2109.029 7        46.402               
G20  20523169.737 7 107850100.136 7      -673.384 7        42.800               
> 2022 08 13 03 15 09.0000000  0  6                                             
G05  21382486.477 7 112365793.959 7      1544.466 7        45.852               
G06  22600717.589 6 118767689.878 6     -1129.065 6        41.995               
G12  21897775.689 7 115073655.753 7      -489.870 7        45.029               
G02  22804670.882 7 119839366.823 7       562.168 7        43.605               
G19  21816496.740 7 114646525.254 7     -2116.650 7        45.695               
G20  20523301.503 7 107850774.323 7      -676.009 7        43.377               
> 2022 08 13 03 15 10.0000000  0  6                                             
G05  21382190.334 7 112364251.605 7      1538.408 7        46.012               
G06  22600924.977 6 118768819.216 6     -1132.395 6        41.344               
G12  21897868.143 7 115074149.789 7      -495.281 7        44.675               
G02  22804565.437 7 119838808.852 7       555.896 7        43.998               
G19  21816901.706 7 114648643.137 7     -2121.716 7        45.336               
G20  20523431.679 7 107851455.440 7      -686.722 7        44.113               
> 2022 08 13 03 15 11.0000000  0  6                                             
G05  21381895.763 7 112362711.289 7      1544.015 7        47.134               
G06  22601142.014 6 118769950.140 6     -1128.984 6        41.438               
G12  21897957.452 7 115074645.984 7      -494.249 7        44.787               
G02  22804459.510 7 119838252.394 7       558.347 7        44.025               
G19  21817303.330 7 114650763.064 7     -2117.366 7        45.727               
G20  20523559.889 7 107852138.532 7      -679.544 7        43.903               
> 2022 08 13 03 15 12.0000000  0  6                                             
G05  21381604.855 7 112361166.893 7      1544.656 7        46.864               
G06  22601350.795 6 118771076.521 6     -1123.858 6        41.614               
G12  21898053.659 7 115075138.216 7      -489.504 7        45.777               
G02  22804349.347 7 119837691.320 7       562.377 7        43.776               
G19  21817705.222 7 114652878.888 7     -2113.454 7        45.909               
G20  20523690.083 7 107852817.440 7      -676.194 7        43.839               
> 2022 08 13 03 15 13.0000000  0  6                                             
G05  21381311.178 7 112359621.234 7      1541.566 7        46.405               
G06  22601561.257 6 118772201.085 6     -1128.219 6        41.622               
G12  21898151.421 7 115075629.307 7      -493.314 7        45.357               
G02  22804237.344 7 119837128.441 7       561.750 7        44.165               
G19  21818105.560 7 114654993.442 7     -2121.371 7        45.319               
G20  20523826.781 7 107853495.001 7      -679.169 7        44.090               
> 2022 08 13 03 15 14.0000000  0  6                                             
G05  21381016.517 7 112358076.469 7      1545.861 7        47.785               
G06  22601775.149 6 118773326.101 6     -1125.929 6        40.944               
G12  21898244.751 7 115076121.408 7      -489.459 7        45.984               
G02  22804136.831 7 119836565.927 7       566.484 7        42.779               
G19  21818508.935 7 114657108.838 7     -2111.222 7        44.726               
G20  20523950.846 7 107854173.352 7      -673.841 7        43.823               
