     3.02           OBSERVATION DATA    G                   RINEX VERSION / TYPE
G = GPS  R = GLONASS  E = GALILEO  S = GEO  M = MIXED       COMMENT             
GNSS-SDR            haint               20230131 151625 UTC PGM / RUN BY / DATE 
GPS OBSERVATION DATA FILE GENERATED BY GNSS-SDR             COMMENT             
GNSS-SDR VERSION 0.0.17.git-next-0ff811d00                  COMMENT             
See https://gnss-sdr.org                                    COMMENT             
DEFAULT MARKER NAME                                         MARKER NAME         
haint               CTTC                                    OBSERVER / AGENCY   
GNSS-SDR            Software Receiver   0.0.17.gi           REC # / TYPE / VERS 
Antenna number      Antenna type                            ANT # / TYPE        
        0.0000        0.0000        0.0000                  APPROX POSITION XYZ 
        0.0000        0.0000        0.0000                  ANTENNA: DELTA H/E/N
G    4 C1C L1C D1C S1C                                      SYS / # / OBS TYPES 
DBHZ                                                        SIGNAL STRENGTH UNIT
  2022    08    13    03    14   18.1000000     GPS         TIME OF FIRST OBS   
                                                            END OF HEADER       
> 2022 08 13 03 14 19.0000000  0  5                                             
G02  22810236.565 7 119868620.416 7       609.927 7        45.427               
G05  21397548.062 7 112444878.021 7      1622.651 7        47.158               
G12  21893492.359 7 115051080.911 7      -409.136 7        44.357               
G19  21796727.364 6 114542554.187 6     -2036.107 6        41.581               
G20  20517190.065 7 107818565.061 7      -607.049 7        43.870               
> 2022 08 13 03 14 20.0000000  0  5                                             
G02  22810122.328 7 119868013.162 7       605.395 7        45.301               
G05  21397243.020 7 112443259.391 7      1616.806 7        46.878               
G12  21893574.556 7 115051492.336 7      -410.003 7        43.564               
G19  21797119.268 7 114544597.447 7     -2047.425 7        42.056               
G20  20517302.318 7 107819174.531 7      -609.808 7        43.917               
> 2022 08 13 03 14 21.0000000  0  5                                             
G02  22810006.841 7 119867406.432 7       605.803 7        44.994               
G05  21396933.278 7 112441641.825 7      1618.205 7        46.895               
G12  21893648.927 7 115051904.963 7      -410.999 7        43.886               
G19  21797503.827 6 114546641.678 6     -2042.721 6        41.909               
G20  20517421.701 7 107819784.969 7      -610.564 7        44.236               
> 2022 08 13 03 14 22.0000000  0  5                                             
G02  22809892.282 7 119866799.672 7       604.468 7        44.649               
G05  21396621.499 7 112440024.735 7      1612.757 7        46.764               
G12  21893732.179 7 115052318.209 7      -414.948 7        43.810               
G19  21797894.230 6 114548686.356 6     -2046.534 6        41.130               
G20  20517539.369 7 107820395.802 7      -614.638 7        44.571               
> 2022 08 13 03 14 23.0000000  0  5                                             
G02  22809779.082 7 119866197.077 7       601.170 7        44.000               
G05  21396319.745 7 112438412.361 7      1611.570 7        46.425               
G12  21893806.657 7 115052736.274 7      -418.486 7        44.031               
G19  21798284.149 6 114550735.683 6     -2050.841 6        40.517               
G20  20517657.322 7 107821011.262 7      -618.764 7        44.740               
> 2022 08 13 03 14 24.0000000  0  5                                             
G02  22809662.362 7 119865599.445 7       597.990 7        43.337               
G05  21396011.987 7 112436805.511 7      1607.306 7        46.932               
G12  21893887.550 7 115053160.026 7      -424.726 7        44.094               
G19  21798677.232 6 114552790.570 6     -2054.748 6        41.333               
G20  20517779.117 7 107821632.166 7      -622.384 7        44.441               
> 2022 08 13 03 14 25.0000000  0  5                                             
G02  22809547.374 7 119865001.972 7       595.934 7        43.128               
G05  21395709.482 7 112435199.322 7      1605.150 7        46.871               
G12  21893969.051 7 115053584.551 7      -424.287 7        43.913               
G19  21799063.561 7 114554846.049 7     -2059.739 7        42.082               
G20  20517897.571 7 107822253.640 7      -621.248 7        43.993               
> 2022 08 13 03 14 26.0000000  0  5                                             
G02  22809432.066 7 119864405.354 7       595.515 7        44.005               
G05  21395403.779 7 112433594.538 7      1605.440 7        46.588               
G12  21894049.586 7 115054010.608 7      -424.827 7        43.489               
G19  21799465.739 7 114556902.921 7     -2054.994 7        42.386               
G20  20518009.520 7 107822876.418 7      -620.395 7        44.281               
> 2022 08 13 03 14 27.0000000  0  5                                             
G02  22809317.114 7 119863812.164 7       590.743 7        43.731               
G05  21395091.304 7 112431993.744 7      1599.417 7        46.593               
G12  21894124.297 7 115054440.781 7      -430.983 7        44.509               
G19  21799854.819 7 114558963.708 7     -2063.175 7        42.215               
G20  20518133.657 7 107823503.092 7      -628.996 7        44.194               
> 2022 08 13 03 14 28.0000000  0  5                                             
G02  22809206.005 7 119863219.533 7       596.737 7        43.444               
G05  21394796.661 7 112430394.044 7      1601.354 7        46.106               
G12  21894213.785 7 115054872.175 7      -431.734 7        45.668               
G19  21800237.591 7 114561025.595 7     -2058.740 7        43.091               
G20  20518249.448 7 107824130.784 7      -628.039 7        44.234               
> 2022 08 13 03 14 29.0000000  0  5                                             
G02  22809093.001 7 119862627.640 7       588.022 7        43.531               
G05  21394493.352 7 112428795.607 7      1593.477 7        45.820               
G12  21894295.232 7 115055304.978 7      -437.566 7        45.320               
G19  21800634.837 6 114563088.708 6     -2069.978 6        41.924               
G20  20518363.095 7 107824759.652 7      -632.927 7        44.208               
> 2022 08 13 03 14 30.0000000  0  5                                             
G02  22808978.657 7 119862049.973 7       567.051 7        44.331               
G05  21394185.416 7 112427211.927 7      1574.424 7        45.848               
G12  21894374.910 7 115055752.650 7      -457.843 7        45.126               
G19  21801035.354 7 114565166.569 7     -2088.160 7        42.345               
G20  20518485.408 7 107825403.191 7      -651.552 7        43.845               
> 2022 08 13 03 14 31.0000000  0  5                                             
G02  22808874.087 7 119861485.097 7       563.146 7        45.644               
G05  21393887.896 7 112425641.617 7      1569.624 7        46.390               
G12  21894470.438 7 115056213.814 7      -462.340 7        45.048               
G19  21801432.189 6 114567257.737 6     -2092.038 6        41.593               
G20  20518613.887 7 107826059.962 7      -657.207 7        43.730               
> 2022 08 13 03 14 32.0000000  0  5                                             
G02  22808765.998 7 119860918.820 7       566.199 7        45.253               
G05  21393583.819 7 112424070.417 7      1571.632 7        46.003               
G12  21894556.548 7 115056674.202 7      -460.101 7        44.287               
G19  21801828.309 6 114569348.003 6     -2091.810 6        41.163               
G20  20518736.218 7 107826715.793 7      -652.758 7        43.885               
> 2022 08 13 03 14 33.0000000  0  5                                             
G02  22808657.622 7 119860351.869 7       570.187 7        44.668               
G05  21393288.802 7 112422499.056 7      1570.511 7        45.809               
G12  21894642.588 7 115057134.573 7      -461.630 7        43.957               
G19  21802216.264 6 114571438.064 6     -2090.091 6        41.124               
G20  20518858.013 7 107827371.370 7      -656.937 7        44.293               
> 2022 08 13 03 14 34.0000000  0  5                                             
G02  22808543.814 7 119859785.836 7       564.873 7        43.596               
G05  21392988.298 7 112420929.191 7      1571.071 7        45.168               
G12  21894729.127 7 115057596.556 7      -462.906 7        43.801               
G19  21802621.408 6 114573529.597 6     -2091.411 6        41.097               
G20  20518986.420 7 107828028.335 7      -655.224 7        44.265               
> 2022 08 13 03 14 35.0000000  0  5                                             
G02  22808441.854 7 119859218.123 7       570.601 7        44.615               
G05  21392682.255 7 112419358.176 7      1575.659 7        44.903               
G12  21894814.398 7 115058057.507 7      -457.249 7        44.189               
G19  21803021.031 7 114575619.967 7     -2084.805 7        42.050               
G20  20519104.641 7 107828684.050 7      -649.866 7        44.303               
> 2022 08 13 03 14 36.0000000  0  5                                             
G02  22808336.212 7 119858637.125 7       590.418 7        45.349               
G05  21392380.823 7 112417774.431 7      1589.322 7        45.418               
G12  21894897.561 7 115058505.870 7      -441.403 7        43.882               
G19  21803403.642 6 114577697.566 6     -2071.295 6        40.834               
G20  20519230.958 7 107829326.955 7      -636.943 7        44.351               
> 2022 08 13 03 14 37.0000000  0  5                                             
G02  22808222.422 7 119858044.971 7       595.603 7        44.423               
G05  21392079.783 7 112416180.057 7      1602.009 7        45.967               
G12  21894976.631 7 115058943.704 7      -433.556 7        44.379               
G19  21803801.854 7 114579764.487 7     -2060.760 7        42.093               
G20  20519351.788 7 107829959.144 7      -626.545 7        44.777               
> 2022 08 13 03 14 38.0000000  0  5                                             
G02  22808103.968 7 119857445.570 7       601.487 7        43.659               
G05  21391775.706 7 112414579.007 7      1603.057 7        45.320               
G12  21895062.796 7 115059375.014 7      -431.126 7        44.196               
G19  21804196.312 7 114581824.686 7     -2060.506 7        42.572               
G20  20519469.402 7 107830584.550 7      -623.243 7        44.052               
> 2022 08 13 03 14 39.0000000  0  5                                             
G02  22807989.732 7 119856844.521 7       601.210 7        43.547               
G05  21391465.643 7 112412976.789 7      1601.591 7        45.391               
G12  21895142.545 7 115059805.287 7      -426.164 7        44.387               
G19  21804582.104 7 114583883.764 7     -2058.549 7        43.120               
G20  20519591.537 7 107831208.710 7      -622.432 7        43.630               
> 2022 08 13 03 14 40.0000000  0  5                                             
G02  22807874.476 7 119856240.421 7       603.520 7        43.361               
G05  21391164.353 7 112411372.087 7      1606.221 7        45.086               
G12  21895222.634 7 115060233.233 7      -426.915 7        44.237               
G19  21804985.962 7 114585940.306 7     -2056.620 7        43.123               
G20  20519705.219 7 107831830.319 7      -621.376 7        43.999               
> 2022 08 13 03 14 41.0000000  0  5                                             
G02  22807762.295 7 119855635.417 7       604.701 7        44.976               
G05  21390860.937 7 112409767.044 7      1604.410 7        46.637               
G12  21895305.493 7 115060660.913 7      -429.380 7        43.944               
G19  21805367.662 7 114587996.451 7     -2055.783 7        42.701               
G20  20519824.727 7 107832451.463 7      -621.989 7        43.498               
> 2022 08 13 03 14 42.0000000  0  5                                             
G02  22807643.448 7 119855030.944 7       605.971 7        44.530               
G05  21390555.627 7 112408163.048 7      1604.141 7        45.185               
G12  21895390.531 7 115061089.787 7      -429.828 7        43.655               
G19  21805762.318 7 114590053.611 7     -2058.594 7        42.312               
G20  20519942.699 7 107833073.562 7      -622.646 7        43.599               
> 2022 08 13 03 14 43.0000000  0  5                                             
G02  22807527.889 7 119854427.835 7       602.604 7        45.448               
G05  21390244.617 7 112406560.948 7      1602.391 7        45.475               
G12  21895471.550 7 115061520.686 7      -430.932 7        43.457               
G19  21806150.504 7 114592112.633 7     -2056.973 7        43.585               
G20  20520060.831 7 107833697.505 7      -624.785 7        43.484               
> 2022 08 13 03 14 44.0000000  0  5                                             
G02  22807413.313 7 119853826.625 7       598.695 7        45.166               
G05  21389940.558 7 112404961.304 7      1597.011 7        45.696               
G12  21895552.407 7 115061954.177 7      -438.096 7        43.955               
G19  21806551.432 7 114594174.121 7     -2065.315 7        42.957               
G20  20520181.482 7 107834323.775 7      -628.869 7        43.516               
> 2022 08 13 03 14 45.0000000  0  5                                             
G02  22807294.609 7 119853231.701 7       593.569 7        44.620               
G05  21389642.145 7 112403368.508 7      1586.958 7        46.037               
G12  21895642.306 7 115062394.609 7      -445.603 7        45.034               
G19  21806940.887 7 114596242.387 7     -2074.286 7        43.061               
G20  20520303.170 7 107834956.792 7      -640.848 7        43.264               
> 2022 08 13 03 14 46.0000000  0  5                                             
G02  22807186.144 7 119852645.037 7       584.384 7        44.246               
G05  21389338.300 7 112401784.438 7      1581.162 7        44.449               
G12  21895724.825 7 115062843.953 7      -453.243 7        44.807               
G19  21807339.795 7 114598319.372 7     -2082.383 7        42.881               
G20  20520417.139 7 107835598.497 7      -642.267 7        42.787               
> 2022 08 13 03 14 47.0000000  0  5                                             
G02  22807078.733 7 119852062.331 7       580.273 7        45.014               
G05  21389036.099 7 112400204.889 7      1577.677 7        45.102               
G12  21895810.972 7 115063297.910 7      -456.087 7        45.075               
G19  21807735.254 7 114600400.882 7     -2085.400 7        43.585               
G20  20520540.793 7 107836244.615 7      -647.392 7        43.147               
> 2022 08 13 03 14 48.0000000  0  5                                             
G02  22806963.728 7 119851482.938 7       580.889 7        44.383               
G05  21388739.652 7 112398629.209 7      1576.362 7        45.580               
G12  21895899.066 7 115063755.870 7      -457.428 7        44.249               
G19  21808128.105 7 114602486.226 7     -2085.110 7        42.736               
G20  20520666.126 7 107836894.482 7      -651.298 7        43.586               
> 2022 08 13 03 14 49.0000000  0  5                                             
G02  22806853.726 7 119850901.875 7       581.006 7        44.133               
G05  21388436.129 7 112397052.418 7      1574.756 7        46.192               
G12  21895985.338 7 115064212.791 7      -458.116 7        45.503               
G19  21808530.480 7 114604570.291 7     -2084.584 7        43.878               
G20  20520789.601 7 107837543.121 7      -647.474 7        45.032               
> 2022 08 13 03 14 50.0000000  0  5                                             
G02  22806747.692 7 119850321.427 7       582.182 7        43.389               
G05  21388138.860 7 112395476.793 7      1576.069 7        45.511               
G12  21896070.215 7 115064671.018 7      -462.039 7        45.096               
G19  21808917.272 7 114606655.540 7     -2085.875 7        43.996               
G20  20520916.417 7 107838192.819 7      -650.054 7        43.591               
> 2022 08 13 03 14 51.0000000  0  5                                             
G02  22806638.691 7 119849740.645 7       583.906 7        44.214               
G05  21387839.500 7 112393901.332 7      1575.407 7        45.242               
G12  21896154.682 7 115065129.605 7      -458.768 7        44.550               
G19  21809318.861 7 114608741.037 7     -2085.628 7        44.127               
G20  20521038.481 7 107838842.632 7      -648.672 7        44.293               
> 2022 08 13 03 14 52.0000000  0  5                                             
G02  22806525.455 7 119849155.220 7       587.695 7        45.200               
G05  21387533.493 7 112392321.763 7      1579.689 7        46.207               
G12  21896244.849 7 115065584.148 7      -453.789 7        44.895               
G19  21809715.464 7 114610822.359 7     -2081.722 7        43.484               
G20  20521160.723 7 107839488.300 7      -643.831 7        44.412               
> 2022 08 13 03 14 53.0000000  0  5                                             
G02  22806411.200 7 119848570.619 7       583.729 7        46.149               
G05  21387238.279 7 112390743.595 7      1576.972 7        46.366               
G12  21896327.118 7 115066040.264 7      -456.395 7        45.081               
G19  21810110.744 6 114612904.944 6     -2085.781 6        41.691               
G20  20521278.801 7 107840135.212 7      -646.202 7        42.934               
> 2022 08 13 03 14 54.0000000  0  5                                             
G02  22806301.002 7 119847985.346 7       585.300 7        44.072               
G05  21386935.989 7 112389165.238 7      1580.255 7        45.985               
G12  21896413.051 7 115066496.327 7      -453.493 7        45.219               
G19  21810504.006 7 114614987.396 7     -2079.450 7        43.176               
G20  20521406.797 7 107840781.896 7      -645.369 7        43.567               
> 2022 08 13 03 14 55.0000000  0  5                                             
G02  22806189.839 7 119847398.965 7       585.140 7        45.420               
G05  21386639.685 7 112387586.364 7      1577.690 7        45.241               
G12  21896503.682 7 115066951.998 7      -457.281 7        46.346               
G19  21810895.856 7 114617069.250 7     -2084.521 7        45.428               
G20  20521528.914 7 107841427.910 7      -649.013 7        43.643               
> 2022 08 13 03 14 56.0000000  0  5                                             
G02  22806078.854 7 119846816.275 7       578.828 7        45.437               
G05  21386336.662 7 112386011.706 7      1572.588 7        45.226               
G12  21896591.187 7 115067411.932 7      -463.417 7        44.551               
G19  21811292.584 7 114619155.348 7     -2089.280 7        45.051               
G20  20521655.891 7 107842078.068 7      -651.028 7        44.467               
> 2022 08 13 03 14 57.0000000  0  5                                             
G02  22805965.582 7 119846238.390 7       576.311 7        44.080               
G05  21386039.428 7 112384442.426 7      1568.495 7        46.164               
G12  21896676.083 7 115067877.373 7      -466.252 7        45.171               
G19  21811691.277 7 114621246.764 7     -2093.085 7        45.665               
G20  20521774.184 7 107842733.467 7      -656.595 7        44.516               
> 2022 08 13 03 14 58.0000000  0  5                                             
G02  22805862.031 7 119845662.617 7       575.266 7        44.838               
G05  21385740.301 7 112382875.780 7      1565.972 7        46.790               
G12  21896764.713 7 115068345.604 7      -469.149 7        45.495               
G19  21812092.044 7 114623340.767 7     -2094.544 7        45.245               
G20  20521898.481 7 107843391.438 7      -660.295 7        43.684               
> 2022 08 13 03 14 59.0000000  0  5                                             
G02  22805747.973 7 119845086.736 7       578.234 7        43.827               
G05  21385440.208 7 112381309.538 7      1565.352 7        47.569               
G12  21896856.399 7 115068814.397 7      -471.901 7        45.286               
G19  21812491.006 7 114625435.195 7     -2095.371 7        45.218               
G20  20522022.957 7 107844049.740 7      -659.008 7        43.717               
> 2022 08 13 03 15 00.0000000  0  5                                             
G02  22805634.970 7 119844515.959 7       570.692 7        44.579               
G05  21385140.563 7 112379748.982 7      1560.758 7        47.458               
G12  21896948.228 7 115069288.985 7      -474.202 7        45.871               
G19  21812890.485 7 114627535.284 7     -2101.482 7        45.243               
G20  20522153.686 7 107844713.618 7      -661.873 7        43.026               
> 2022 08 13 03 15 01.0000000  0  5                                             
G02  22805528.685 7 119843943.428 7       572.805 7        45.026               
G05  21384840.738 7 112378187.148 7      1562.142 7        45.564               
G12  21897036.286 7 115069762.393 7      -473.828 7        44.541               
G19  21813290.144 7 114629634.016 7     -2096.299 7        45.437               
G20  20522275.482 7 107845376.147 7      -660.518 7        42.969               
> 2022 08 13 03 15 02.0000000  0  5                                             
G02  22805422.114 7 119843369.707 7       573.346 7        45.192               
G05  21384546.043 7 112376624.697 7      1562.086 7        45.296               
G12  21897124.827 7 115070235.354 7      -470.809 7        44.196               
G19  21813688.855 7 114631732.118 7     -2095.457 7        45.310               
G20  20522404.567 7 107846037.919 7      -660.673 7        42.917               
> 2022 08 13 03 15 03.0000000  0  5                                             
G02  22805309.825 7 119842801.796 7       560.589 7        44.574               
G05  21384247.594 7 112375068.618 7      1548.407 7        45.123               
G12  21897214.941 7 115070714.788 7      -486.089 7        45.617               
G19  21814083.725 7 114633836.564 7     -2111.339 7        44.618               
G20  20522527.256 7 107846706.034 7      -673.810 7        43.312               
> 2022 08 13 03 15 04.0000000  0  5                                             
G02  22805205.309 7 119842247.425 7       553.120 7        44.393               
G05  21383954.900 7 112373526.621 7      1540.967 7        46.304               
G12  21897308.235 7 115071208.428 7      -493.672 7        45.273               
G19  21814496.392 7 114635955.024 7     -2122.467 7        44.878               
G20  20522654.895 7 107847388.079 7      -686.214 7        43.783               
> 2022 08 13 03 15 05.0000000  0  5                                             
G02  22805097.666 7 119841690.863 7       559.906 7        45.131               
G05  21383663.402 7 112371982.958 7      1547.153 7        46.084               
G12  21897404.031 7 115071700.513 7      -488.053 7        44.950               
G19  21814899.518 7 114638071.824 7     -2113.389 7        45.277               
G20  20522783.963 7 107848068.391 7      -676.321 7        42.815               
> 2022 08 13 03 15 06.0000000  0  5                                             
G02  22804991.131 7 119841131.750 7       558.569 7        44.142               
G05  21383366.169 7 112370437.279 7      1544.123 7        44.593               
G12  21897497.307 7 115072190.711 7      -491.185 7        45.001               
G19  21815295.388 7 114640186.533 7     -2116.061 7        45.071               
G20  20522909.778 7 107848746.591 7      -678.442 7        42.956               
> 2022 08 13 03 15 07.0000000  0  5                                             
G02  22804884.489 7 119840571.985 7       560.920 7        43.907               
G05  21383070.651 7 112368891.533 7      1547.368 7        44.987               
G12  21897587.313 7 115072680.963 7      -488.486 7        44.433               
G19  21815692.438 7 114642301.132 7     -2111.859 7        46.268               
G20  20523039.936 7 107849424.606 7      -678.606 7        42.159               
> 2022 08 13 03 15 08.0000000  0  5                                             
G02  22804780.151 7 119840009.291 7       564.282 7        43.950               
G05  21382780.494 7 112367343.358 7      1550.732 7        45.089               
G12  21897679.786 7 115073168.918 7      -486.024 7        44.870               
G19  21816098.261 7 114644413.320 7     -2109.029 7        46.406               
G20  20523169.737 7 107850100.136 7      -673.384 7        42.801               
> 2022 08 13 03 15 09.0000000  0  5                                             
G02  22804670.882 7 119839444.823 7       562.168 7        43.603               
G05  21382486.495 7 112365793.959 7      1544.466 7        45.852               
G12  21897775.689 7 115073655.753 7      -489.870 7        45.029               
G19  21816496.740 7 114646524.254 7     -2116.650 7        45.695               
G20  20523301.503 7 107850774.323 7      -676.009 7        43.378               
> 2022 08 13 03 15 10.0000000  0  5                                             
G02  22804565.437 7 119838886.852 7       555.898 7        44.000               
G05  21382190.334 7 112364251.605 7      1538.408 7        46.013               
G12  21897868.143 7 115074149.789 7      -495.281 7        44.678               
G19  21816901.706 7 114648642.137 7     -2121.716 7        45.334               
G20  20523431.697 7 107851455.440 7      -686.721 7        44.118               
> 2022 08 13 03 15 11.0000000  0  5                                             
G02  22804459.456 7 119838330.394 7       558.348 7        44.023               
G05  21381895.763 7 112362711.289 7      1544.017 7        47.136               
G12  21897957.560 7 115074645.984 7      -494.250 7        44.788               
G19  21817303.330 7 114650762.064 7     -2117.366 7        45.724               
G20  20523559.871 7 107852138.532 7      -679.539 7        43.901               
> 2022 08 13 03 15 12.0000000  0  5                                             
G02  22804349.329 7 119837769.320 7       562.366 7        43.775               
G05  21381604.855 7 112361166.893 7      1544.656 7        46.863               
G12  21898053.659 7 115075138.216 7      -489.501 7        45.775               
G19  21817705.222 7 114652877.888 7     -2113.452 7        45.908               
G20  20523690.083 7 107852817.440 7      -676.196 7        43.840               
> 2022 08 13 03 15 13.0000000  0  5                                             
G02  22804237.308 7 119837206.441 7       561.769 7        44.163               
G05  21381311.178 7 112359621.234 7      1541.566 7        46.406               
G12  21898151.421 7 115075629.307 7      -493.314 7        45.356               
G19  21818105.542 7 114654992.442 7     -2121.403 7        45.321               
G20  20523826.781 7 107853495.001 7      -679.169 7        44.090               
> 2022 08 13 03 15 14.0000000  0  5                                             
G02  22804136.831 7 119836643.927 7       566.484 7        42.779               
G05  21381016.517 7 112358076.469 7      1545.861 7        47.785               
G12  21898244.751 7 115076121.408 7      -489.458 7        45.984               
G19  21818508.935 7 114657107.838 7     -2111.222 7        44.728               
G20  20523950.846 7 107854173.352 7      -673.841 7        43.821               
