     3.02           OBSERVATION DATA    G                   RINEX VERSION / TYPE
G = GPS  R = GLONASS  E = GALILEO  S = GEO  M = MIXED       COMMENT             
GNSS-SDR            haint               20230131 102530 UTC PGM / RUN BY / DATE 
GPS OBSERVATION DATA FILE GENERATED BY GNSS-SDR             COMMENT             
GNSS-SDR VERSION 0.0.17.git-next-0ff811d00                  COMMENT             
See https://gnss-sdr.org                                    COMMENT             
DEFAULT MARKER NAME                                         MARKER NAME         
haint               CTTC                                    OBSERVER / AGENCY   
GNSS-SDR            Software Receiver   0.0.17.gi           REC # / TYPE / VERS 
Antenna number      Antenna type                            ANT # / TYPE        
        0.0000        0.0000        0.0000                  APPROX POSITION XYZ 
        0.0000        0.0000        0.0000                  ANTENNA: DELTA H/E/N
G    4 C1C L1C D1C S1C                                      SYS / # / OBS TYPES 
DBHZ                                                        SIGNAL STRENGTH UNIT
  2023    01    31    10    25   48.1200000     GPS         TIME OF FIRST OBS   
    18    18   137     7                                    LEAP SECONDS        
                                                            END OF HEADER       
> 2023 01 31 10 25 49.0000000  0  4                                             
G17  22307587.766 7 117227427.353 7      1282.189 7        42.128               
G06  23648802.696 6 124275590.887 6      4535.673 6        36.507               
G03  23574463.871 6 123884886.470 6      2873.598 6        36.052               
G30  21409358.485 7 112507178.920 7       356.987 7        44.867               
> 2023 01 31 10 25 50.0000000  0  4                                             
G17  22307289.719 6 117226145.744 6      1279.039 6        41.904               
G06  23647888.276 5 124271052.968 5      4530.393 5        35.127               
G03  23573859.487 5 123882010.135 5      2877.972 5        35.928               
G30  21409237.548 7 112506822.086 7       356.547 7        44.720               
> 2023 01 31 10 25 51.0000000  0  4                                             
G17  22306989.457 6 117224863.783 6      1282.718 6        41.878               
G06  23646957.335 5 124266514.879 5      4537.130 5        35.444               
G03  23573260.481 5 123879133.704 5      2876.410 5        35.451               
G30  21409112.366 7 112506465.416 7       357.651 7        44.886               
> 2023 01 31 10 25 52.0000000  0  4                                             
G17  22306687.953 7 117223581.412 7      1278.578 7        42.061               
G06  23646055.718 6 124261976.571 6      4544.309 6        36.432               
G03  23572660.860 5 123876257.072 5      2869.718 5        35.809               
G30  21408990.669 7 112506108.828 7       356.754 7        45.344               
> 2023 01 31 10 25 53.0000000  0  4                                             
G17  22306384.332 6 117222299.000 6      1283.556 6        41.656               
G06  23645122.401 5 124257438.398 5      4532.711 5        35.638               
G03  23572043.512 6 123873380.639 6      2876.944 6        36.569               
G30  21408864.532 7 112505752.704 7       355.606 7        45.462               
> 2023 01 31 10 25 54.0000000  0  4                                             
G17  22306085.776 6 117221016.884 6      1280.466 6        41.901               
G06  23644213.761 5 124252900.728 5      4541.821 5        35.428               
G03  23571455.862 5 123870504.766 5      2877.092 5        35.614               
G30  21408745.944 7 112505397.375 7       355.092 7        45.431               
> 2023 01 31 10 25 55.0000000  0  4                                             
G17  22305787.363 7 117219734.580 7      1281.230 7        42.306               
G06  23643301.852 5 124248362.998 5      4536.010 5        35.890               
G03  23570839.550 6 123867628.902 6      2880.261 6        36.120               
G30  21408626.919 7 112505042.337 7       354.920 7        45.164               
> 2023 01 31 10 26 43.0000000  0  4                                             
G17  22291361.433 7 117142065.917 7      1303.790 7        42.463               
G06  23599161.005 5 124014608.893 5      4545.482 5        35.577               
G03  23541913.060 6 123713727.729 6      2890.086 6        36.161               
G30  21402776.395 7 112472527.779 7       350.286 7        44.605               
> 2023 01 31 10 26 44.0000000  0  4                                             
G17  22291062.922 7 117140763.247 7      1301.724 7        42.480               
G06  23598240.580 5 124010059.923 5      4542.574 5        34.948               
G03  23541298.893 6 123710843.360 6      2893.838 6        36.541               
G30  21402653.581 7 112472176.922 7       351.426 7        44.508               
> 2023 01 31 10 26 45.0000000  0  4                                             
G17  22290765.278 7 117139460.418 7      1304.047 7        42.359               
G06  23597332.334 5 124005510.954 5      4547.089 5        34.427               
G03  23540713.575 5 123707959.083 5      2880.422 5        35.803               
G30  21402534.297 7 112471826.413 7       350.863 7        44.621               
> 2023 01 31 10 27 07.0000000  0  4                                             
G17  22284067.450 6 117103788.043 6      1314.843 6        41.606               
G06  23577052.360 5 123898508.849 5      4565.122 5        35.548               
G03  23527408.220 6 123637573.128 6      2893.246 6        36.071               
G30  21399853.505 7 112457194.499 7       354.842 7        44.947               
> 2023 01 31 10 27 08.0000000  0  4                                             
G17  22283763.793 6 117102470.664 6      1316.466 6        41.777               
G06  23576130.452 5 123893949.759 5      4560.973 5        35.207               
G03  23526794.884 6 123634679.966 6      2897.370 6        36.631               
G30  21399725.197 7 112456840.935 7       354.493 7        44.667               
> 2023 01 31 10 27 09.0000000  0  4                                             
G17  22283455.963 7 117101152.563 7      1321.083 7        42.118               
G06  23575210.287 6 123889390.111 6      4556.842 6        36.112               
G03  23526197.058 6 123631786.378 6      2898.217 6        36.595               
G30  21399610.594 7 112456487.183 7       354.038 7        44.371               
> 2023 01 31 10 27 10.0000000  0  4                                             
G17  22283146.525 7 117099834.269 7      1320.343 7        42.226               
G06  23574284.591 5 123884830.464 5      4566.209 5        35.365               
G03  23525593.925 6 123628892.831 6      2894.008 6        36.565               
G30  21399487.762 7 112456133.710 7       354.643 7        45.046               
> 2023 01 31 10 27 11.0000000  0  4                                             
G17  22282840.500 6 117098514.691 6      1321.995 6        41.725               
G06  23573363.880 5 123880269.717 5      4566.234 5        35.690               
G03  23524992.784 6 123625998.228 6      2901.874 6        36.046               
G30  21399368.335 7 112455779.452 7       353.272 7        44.563               
> 2023 01 31 10 27 12.0000000  0  4                                             
G17  22282537.209 7 117097194.358 7      1322.634 7        42.183               
G06  23572440.320 5 123875708.410 5      4562.879 5        35.336               
G03  23524376.669 6 123623103.152 6      2889.877 6        36.245               
G30  21399243.198 7 112455424.947 7       354.461 7        44.807               
> 2023 01 31 10 27 13.0000000  0  4                                             
G17  22282231.158 7 117095873.330 7      1323.043 7        42.501               
G06  23571518.555 6 123871146.597 6      4564.659 6        36.208               
G03  23523776.529 6 123620207.612 6      2903.365 6        36.073               
G30  21399112.111 7 112455070.265 7       354.682 7        45.028               
> 2023 01 31 10 27 14.0000000  0  4                                             
G17  22281923.909 7 117094551.752 7      1320.792 7        42.312               
G06  23570611.935 5 123866584.427 5      4562.780 5        35.293               
G03  23523173.458 6 123617311.787 6      2895.755 6        36.466               
G30  21398991.048 7 112454715.513 7       356.036 7        45.012               
> 2023 01 31 10 27 15.0000000  0  4                                             
G17  22281618.357 7 117093229.033 7      1323.678 7        42.628               
G06  23569670.371 5 123862021.324 5      4571.019 5        35.998               
G03  23522561.346 6 123614415.023 6      2904.601 6        36.386               
G30  21398872.871 7 112454360.110 7       355.262 7        45.005               
> 2023 01 31 10 27 16.0000000  0  4                                             
G17  22281310.608 7 117091905.721 7      1322.407 7        42.345               
G06  23568766.020 6 123857457.815 6      4546.559 6        36.158               
G03  23521958.088 6 123611517.966 6      2894.330 6        36.429               
G30  21398749.495 7 112454004.610 7       355.678 7        44.696               
> 2023 01 31 10 27 17.0000000  0  4                                             
G17  22281006.906 7 117090581.752 7      1322.862 7        42.162               
G06  23567840.449 6 123852893.830 6      4573.795 6        36.105               
G03  23521353.695 6 123608620.475 6      2896.148 6        36.223               
G30  21398630.576 7 112453648.992 7       356.797 7        44.517               
> 2023 01 31 10 27 18.0000000  0  4                                             
G17  22280701.399 7 117089256.929 7      1321.697 7        42.376               
G06  23566902.174 5 123848329.194 5      4566.529 5        35.885               
G03  23520746.389 6 123605722.430 6      2895.077 6        36.234               
G30  21398501.213 7 112453293.006 7       356.084 7        44.679               
> 2023 01 31 10 27 19.0000000  0  4                                             
G17  22280398.135 7 117087931.341 7      1327.736 7        42.185               
G06  23565965.873 6 123843763.996 6      4563.822 6        36.185               
G03  23520150.180 5 123602823.807 5      2903.109 5        35.703               
G30  21398378.194 7 112452936.743 7       357.569 7        44.768               
> 2023 01 31 10 27 20.0000000  0  4                                             
G17  22280087.929 7 117086605.128 7      1328.179 7        42.196               
G06  23565041.401 6 123839198.350 6      4564.382 6        36.135               
G03  23519527.802 6 123599924.849 6      2890.150 6        36.317               
G30  21398263.046 7 112452580.377 7       357.834 7        44.788               
> 2023 01 31 10 27 21.0000000  0  4                                             
G17  22279780.573 7 117085278.219 7      1327.592 7        42.519               
G06  23564130.956 5 123834632.215 5      4569.024 5        35.776               
G03  23518919.773 6 123597025.444 6      2899.740 6        36.596               
G30  21398141.233 7 112452223.800 7       356.666 7        44.736               
> 2023 01 31 10 27 22.0000000  0  4                                             
G17  22279475.710 7 117083950.896 7      1328.015 7        42.150               
G06  23563203.688 5 123830065.855 5      4566.163 5        35.893               
G03  23518304.096 6 123594125.886 6      2893.290 6        36.698               
G30  21398020.957 7 112451867.312 7       354.609 7        44.374               
> 2023 01 31 10 27 23.0000000  0  4                                             
G17  22279169.202 7 117082623.697 7      1327.818 7        42.021               
G06  23562285.444 5 123825499.808 5      4562.734 5        35.589               
G03  23517707.333 6 123591226.659 6      2894.629 6        36.411               
G30  21397891.120 7 112451511.435 7       356.303 7        44.262               
> 2023 01 31 10 27 24.0000000  0  4                                             
G17  22278862.007 7 117081294.687 7      1328.127 7        42.265               
G06  23561349.312 6 123820932.143 6      4568.185 6        36.299               
G03  23517105.486 5 123588325.873 5      2900.908 5        35.820               
G30  21397763.598 7 112451154.258 7       355.461 7        44.406               
> 2023 01 31 10 27 25.0000000  0  4                                             
G17  22278545.966 7 117079965.561 7      1327.607 7        42.455               
G06  23560435.553 5 123816364.565 5      4572.668 5        35.711               
G03  23516486.441 6 123585425.252 6      2895.238 6        36.330               
G30  21397638.399 7 112450797.466 7       354.251 7        44.434               
> 2023 01 31 10 27 26.0000000  0  4                                             
G17  22278239.316 7 117078635.516 7      1328.926 7        42.376               
G06  23559521.695 5 123811796.265 5      4570.393 5        35.963               
G03  23515875.320 6 123582524.010 6      2896.684 6        36.253               
G30  21397523.322 7 112450440.264 7       359.925 7        44.519               
> 2023 01 31 10 27 27.0000000  0  4                                             
G17  22277929.932 6 117077304.767 6      1332.754 6        41.936               
G06  23558599.207 5 123807227.448 5      4573.112 5        35.674               
G03  23515281.068 6 123579622.268 6      2897.501 6        36.239               
G30  21397404.386 7 112450082.874 7       358.668 7        44.767               
> 2023 01 31 10 27 28.0000000  0  4                                             
G17  22277621.557 7 117075973.351 7      1332.528 7        42.108               
G06  23557662.397 6 123802658.129 6      4564.426 6        36.062               
G03  23514676.211 6 123576720.068 6      2906.075 6        36.683               
G30  21397278.794 7 112449725.261 7       358.920 7        45.102               
> 2023 01 31 10 27 29.0000000  0  4                                             
G17  22277312.754 7 117074640.803 7      1331.506 7        42.641               
G06  23556739.766 6 123798087.942 6      4567.203 6        36.088               
G03  23514067.056 6 123573817.073 6      2900.101 6        36.168               
G30  21397153.353 7 112449367.061 7       361.256 7        45.115               
> 2023 01 31 10 27 30.0000000  0  4                                             
G17  22277006.237 7 117073306.559 7      1335.654 7        42.120               
G06  23555797.880 5 123793516.214 5      4567.815 5        35.643               
G03  23513461.028 6 123570912.597 6      2895.485 6        36.361               
G30  21397028.100 7 112449007.673 7       360.779 7        44.691               
> 2023 01 31 10 27 31.0000000  0  4                                             
G17  22276696.755 7 117071972.290 7      1334.311 7        42.821               
G06  23554904.581 6 123788944.665 6      4569.630 6        36.093               
G03  23512845.404 6 123568008.344 6      2909.627 6        36.081               
G30  21396910.209 7 112448648.742 7       357.695 7        44.598               
> 2023 01 31 10 27 32.0000000  0  4                                             
G17  22276389.193 7 117070637.504 7      1335.950 7        42.611               
G06  23553976.804 6 123784372.774 6      4569.708 6        36.202               
G03  23512236.624 5 123565103.814 5      2909.761 5        35.287               
G30  21396789.978 7 112448289.800 7       358.612 7        44.607               
> 2023 01 31 10 27 33.0000000  0  4                                             
G17  22276080.533 7 117069302.244 7      1334.124 7        42.060               
G06  23553036.437 6 123779800.641 6      4571.805 6        36.011               
G03  23511638.092 5 123562199.087 5      2901.212 5        35.913               
G30  21396663.840 7 112447930.895 7       359.984 7        44.777               
> 2023 01 31 10 27 34.0000000  0  4                                             
G17  22275772.149 7 117067966.191 7      1336.818 7        42.230               
G06  23552120.400 6 123775227.886 6      4574.520 6        36.326               
G03  23511031.707 6 123559293.813 6      2898.737 6        36.479               
G30  21396541.330 7 112447571.680 7       359.844 7        44.467               
> 2023 01 31 10 27 35.0000000  0  4                                             
G17  22275462.014 7 117066629.231 7      1337.262 7        42.084               
G06  23551190.264 6 123770654.406 6      4571.868 6        36.495               
G03  23510423.133 6 123556387.892 6      2903.633 6        36.605               
G30  21396415.184 7 112447212.052 7       359.647 7        43.985               
> 2023 01 31 10 27 36.0000000  0  4                                             
G17  22275152.523 6 117065291.821 6      1335.605 6        41.640               
G06  23550264.586 5 123766080.679 5      4576.604 5        35.979               
G03  23509820.670 6 123553481.757 6      2904.127 6        36.606               
G30  21396291.548 7 112446852.500 7       360.769 7        44.149               
> 2023 01 31 10 27 37.0000000  0  4                                             
G17  22274836.902 6 117063953.706 6      1335.664 6        41.997               
G06  23549338.845 5 123761506.467 5      4571.203 5        35.267               
G03  23509208.763 6 123550575.197 6      2906.623 6        36.146               
G30  21396171.799 7 112446492.735 7       360.525 7        44.636               
> 2023 01 31 10 27 38.0000000  0  4                                             
G17  22274539.151 7 117062614.770 7      1342.580 7        42.310               
G06  23548399.524 5 123756931.617 5      4568.437 5        35.755               
G03  23508591.719 6 123547668.059 6      2910.954 6        36.050               
G30  21396049.548 7 112446132.652 7       361.238 7        44.626               
> 2023 01 31 10 27 39.0000000  0  4                                             
G17  22274219.563 6 117061275.074 6      1341.219 6        41.971               
G06  23547485.336 6 123752356.203 6      4585.165 6        36.226               
G03  23507989.006 6 123544760.417 6      2919.645 6        36.487               
G30  21395927.690 7 112445772.296 7       362.838 7        44.440               
> 2023 01 31 10 27 40.0000000  0  4                                             
G17  22273916.192 7 117059934.769 7      1342.410 7        42.046               
G06  23546561.758 5 123747780.362 5      4582.767 5        35.637               
G03  23507374.454 6 123541852.412 6      2906.466 6        36.083               
G30  21395805.502 7 112445411.845 7       360.779 7        44.513               
> 2023 01 31 10 27 41.0000000  0  4                                             
G17  22273603.940 7 117058593.826 7      1338.891 7        42.184               
G06  23545646.792 5 123743204.110 5      4578.316 5        35.551               
G03  23506777.933 5 123538944.064 5      2900.266 5        35.622               
G30  21395675.272 7 112445051.254 7       359.095 7        45.034               
> 2023 01 31 10 27 42.0000000  0  4                                             
G17  22273294.850 7 117057252.245 7      1338.352 7        42.215               
G06  23544706.113 5 123738627.408 5      4570.085 5        35.885               
G03  23506162.193 6 123536035.260 6      2912.220 6        36.105               
G30  21395551.324 7 112444690.525 7       361.222 7        44.609               
> 2023 01 31 10 27 43.0000000  0  4                                             
G17  22272980.498 7 117055910.119 7      1343.195 7        42.531               
G06  23543770.866 5 123734050.395 5      4579.670 5        35.818               
G03  23505545.345 5 123533126.243 5      2911.378 5        35.742               
G30  21395431.056 7 112444329.773 7       361.125 7        44.380               
> 2023 01 31 10 27 44.0000000  0  4                                             
G17  22272666.048 6 117054567.215 6      1341.066 6        41.954               
G06  23542865.041 5 123729472.748 5      4578.791 5        35.160               
G03  23504939.836 5 123530216.680 5      2908.261 5        35.892               
G30  21395311.182 7 112443968.716 7       359.693 7        44.472               
> 2023 01 31 10 27 45.0000000  0  4                                             
G17  22272353.153 6 117053224.669 6      1339.922 6        41.894               
G06  23541942.231 5 123724895.596 5      4579.028 5        35.886               
G03  23504346.709 6 123527307.705 6      2910.861 6        36.314               
G30  21395187.501 7 112443608.518 7       358.770 7        44.908               
> 2023 01 31 10 27 46.0000000  0  4                                             
G17  22272051.801 6 117051881.207 6      1343.530 6        41.658               
G06  23541008.083 6 123720317.862 6      4572.312 6        36.050               
G03  23503729.352 5 123524398.081 5      2915.556 5        35.930               
G30  21395055.244 7 112443247.936 7       361.091 7        44.419               
> 2023 01 31 10 27 47.0000000  0  4                                             
G17  22271745.195 6 117050536.808 6      1343.775 6        41.399               
G06  23540068.289 5 123715739.282 5      4576.617 5        35.493               
G03  23503120.921 6 123521487.803 6      2906.338 6        36.851               
G30  21394933.225 7 112442886.879 7       361.849 7        44.892               
> 2023 01 31 10 27 48.0000000  0  4                                             
G17  22271429.449 6 117049191.716 6      1345.302 6        41.288               
G06  23539155.673 5 123711160.264 5      4570.596 5        35.335               
G03  23502507.933 6 123518577.026 6      2918.693 6        36.191               
G30  21394809.384 7 112442525.630 7       361.302 7        45.048               
> 2023 01 31 10 27 49.0000000  0  4                                             
G17  22271120.378 6 117047845.832 6      1348.953 6        41.576               
G06  23538225.197 6 123706580.635 6      4583.688 6        36.278               
G03  23501896.616 5 123515665.771 5      2908.165 5        35.995               
G30  21394696.068 7 112442164.128 7       362.213 7        44.871               
> 2023 01 31 10 27 50.0000000  0  4                                             
G17  22270814.013 6 117046499.184 6      1346.294 6        41.783               
G06  23537303.334 6 123702000.428 6      4585.192 6        36.419               
G03  23501291.589 6 123512753.980 6      2913.699 6        36.145               
G30  21394569.921 7 112441802.342 7       362.512 7        44.803               
> 2023 01 31 10 27 51.0000000  0  4                                             
G17  22270497.428 7 117045151.715 7      1350.150 7        42.016               
G06  23536368.990 5 123697419.616 5      4580.235 5        35.277               
G03  23500685.605 5 123509841.615 5      2908.048 5        35.986               
G30  21394442.980 7 112441440.215 7       362.212 7        44.554               
> 2023 01 31 10 27 52.0000000  0  4                                             
G17  22270186.033 7 117043803.744 7      1349.609 7        42.022               
G06  23535449.388 5 123692838.455 5      4589.579 5        35.160               
G03  23500081.847 6 123506929.006 6      2913.179 6        36.158               
G30  21394313.420 7 112441078.091 7       362.486 7        44.687               
> 2023 01 31 10 27 53.0000000  0  4                                             
G17  22269873.415 7 117042455.094 7      1349.125 7        42.268               
G06  23534533.314 5 123688256.856 5      4581.126 5        34.997               
G03  23499461.479 6 123504016.013 6      2905.553 6        36.021               
G30  21394190.919 7 112440715.795 7       364.045 7        44.597               
> 2023 01 31 10 27 54.0000000  0  4                                             
G17  22269562.208 7 117041105.511 7      1349.801 7        42.274               
G06  23533604.840 5 123683674.526 5      4587.148 5        35.643               
G03  23498863.019 6 123501102.310 6      2907.790 6        36.396               
G30  21394072.760 7 112440353.070 7       362.689 7        44.477               
> 2023 01 31 10 27 55.0000000  0  4                                             
G17  22269247.356 7 117039755.026 7      1352.081 7        42.737               
G06  23532663.544 5 123679091.504 5      4581.230 5        35.727               
G03  23498234.494 5 123498187.986 5      2912.517 5        35.820               
G30  21393948.562 7 112439989.960 7       362.652 7        45.183               
> 2023 01 31 10 27 56.0000000  0  4                                             
G17  22268942.412 7 117038404.084 7      1353.253 7        42.677               
G06  23531745.184 5 123674508.162 5      4580.865 5        35.324               
G03  23497631.575 5 123495273.437 5      2917.553 5        35.328               
G30  21393822.683 7 112439626.895 7       361.553 7        44.737               
> 2023 01 31 10 27 57.0000000  0  4                                             
G17  22268625.344 7 117037051.800 7      1352.974 7        42.090               
G06  23530812.492 5 123669923.726 5      4583.803 5        35.062               
G03  23497031.944 5 123492357.794 5      2914.347 5        35.849               
G30  21393697.180 7 112439262.952 7       364.558 7        44.746               
> 2023 01 31 10 35 37.0000000  0  4                                             
G17  22110256.661 7 116190432.093 7      1656.007 7        42.578               
G19  23445199.171 6 123205621.437 6      3071.161 6        36.120               
G03  23207490.158 6 121956475.299 6      3084.091 6        37.051               
G30  21331929.623 7 112100291.076 7       438.555 7        43.968               
> 2023 01 31 10 35 38.0000000  0  4                                             
G17  22109881.375 7 116188774.140 7      1658.384 7        42.197               
G19  23444576.007 5 123202551.452 5      3069.205 5        35.911               
G03  23206843.193 6 121953389.204 6      3090.669 6        36.447               
G30  21331793.122 7 112099851.511 7       441.039 7        44.056               
> 2023 01 31 10 35 39.0000000  0  4                                             
G17  22109520.528 7 116187115.563 7      1653.505 7        42.295               
G19  23443927.933 6 123199480.895 6      3074.645 6        36.416               
G03  23206190.696 6 121950302.799 6      3081.614 6        36.511               
G30  21331654.181 7 112099411.808 7       439.099 7        44.460               
> 2023 01 31 10 35 40.0000000  0  4                                             
G17  22109137.068 7 116185457.094 7      1656.712 7        42.001               
G19  23443279.502 6 123196410.543 6      3069.667 6        36.605               
G03  23205559.553 5 121947216.854 5      3078.634 5        35.741               
G30  21331507.182 7 112098972.725 7       438.302 7        44.709               
> 2023 01 31 10 35 41.0000000  0  4                                             
G17  22108774.800 6 116183798.464 6      1658.212 6        41.987               
G19  23442640.416 6 123193340.057 6      3077.206 6        36.657               
G03  23204921.719 6 121944131.048 6      3083.270 6        36.554               
G30  21331370.251 7 112098533.964 7       439.201 7        44.434               
> 2023 01 31 10 35 42.0000000  0  4                                             
G17  22108401.624 7 116182139.206 7      1657.902 7        42.166               
G19  23442014.804 6 123190269.064 6      3072.614 6        36.032               
G03  23204276.727 6 121941044.985 6      3083.011 6        36.233               
G30  21331231.954 7 112098095.090 7       441.353 7        44.478               
> 2023 01 31 10 35 43.0000000  0  4                                             
G17  22108035.800 7 116180479.576 7      1659.832 7        42.025               
G19  23441368.678 6 123187197.720 6      3066.892 6        36.779               
G03  23203624.043 6 121937958.835 6      3089.403 6        36.279               
G30  21331093.970 7 112097656.329 7       438.838 7        43.975               
> 2023 01 31 10 35 44.0000000  0  4                                             
G17  22107660.694 7 116178819.374 7      1660.093 7        42.184               
G19  23440730.012 6 123184125.896 6      3083.997 6        36.389               
G03  23202996.564 6 121934872.478 6      3081.823 6        36.841               
G30  21330959.255 7 112097217.486 7       436.776 7        44.357               
> 2023 01 31 10 35 45.0000000  0  4                                             
G17  22107287.901 7 116177159.047 7      1660.206 7        42.355               
G19  23440089.327 6 123181054.052 6      3067.684 6        36.205               
G03  23202344.014 6 121931786.277 6      3083.822 6        36.774               
G30  21330823.156 7 112096779.019 7       438.452 7        44.184               
> 2023 01 31 10 35 46.0000000  0  4                                             
G17  22106919.067 7 116175498.192 7      1661.186 7        42.339               
G19  23439453.985 6 123177981.701 6      3082.811 6        36.107               
G03  23201713.532 6 121928699.920 6      3089.862 6        36.418               
G30  21330682.491 7 112096340.514 7       439.286 7        44.583               
> 2023 01 31 10 35 47.0000000  0  4                                             
G17  22106549.580 6 116173836.984 6      1661.303 6        41.767               
G19  23438807.323 5 123174909.074 5      3064.126 5        35.836               
G03  23201060.437 6 121925613.520 6      3084.167 6        37.124               
G30  21330543.139 7 112095902.171 7       438.237 7        43.948               
> 2023 01 31 10 35 48.0000000  0  4                                             
G17  22106168.175 7 116172175.605 7      1660.586 7        42.312               
G19  23438167.576 6 123171836.360 6      3078.152 6        36.175               
G03  23200423.710 6 121922527.279 6      3090.791 6        36.771               
G30  21330405.235 7 112095464.138 7       436.023 7        44.297               
> 2023 01 31 10 35 49.0000000  0  4                                             
G17  22105806.881 7 116170513.875 7      1662.398 7        42.239               
G19  23437546.244 6 123168763.349 6      3069.149 6        36.595               
G03  23199780.095 6 121919441.018 6      3085.048 6        36.751               
G30  21330265.472 7 112095026.255 7       438.678 7        43.765               
> 2023 01 31 10 35 50.0000000  0  4                                             
G17  22105431.167 6 116168851.358 6      1661.501 6        41.848               
G19  23436877.201 6 123165689.642 6      3059.586 6        36.399               
G03  23199119.826 6 121916354.334 6      3082.485 6        36.620               
G30  21330134.081 7 112094588.088 7       438.664 7        43.944               
> 2023 01 31 10 35 51.0000000  0  4                                             
G17  22105058.607 7 116167188.350 7      1665.936 7        42.100               
G19  23436252.669 6 123162615.464 6      3078.905 6        36.735               
G03  23198493.838 5 121913267.449 5      3094.970 5        35.853               
G30  21329993.738 7 112094149.916 7       438.129 7        44.213               
> 2023 01 31 10 35 52.0000000  0  4                                             
G17  22104694.096 7 116165524.998 7      1664.481 7        42.071               
G19  23435611.824 6 123159541.035 6      3069.446 6        36.120               
G03  23197861.748 6 121910180.592 6      3088.292 6        36.457               
G30  21329846.605 7 112093711.894 7       438.090 7        44.067               
> 2023 01 31 10 35 53.0000000  0  4                                             
G17  22104316.953 7 116163861.304 7      1667.546 7        42.135               
G19  23434974.034 5 123156466.364 5      3070.193 5        35.406               
G03  23197212.763 5 121907093.687 5      3081.293 5        35.911               
G30  21329711.211 7 112093274.023 7       436.778 7        44.748               
> 2023 01 31 10 35 54.0000000  0  4                                             
G17  22103954.515 7 116162197.139 7      1665.930 7        42.091               
G19  23434332.973 6 123153391.297 6      3085.611 6        36.603               
G03  23196568.084 6 121904006.693 6      3082.356 6        36.750               
G30  21329571.672 7 112092836.202 7       437.809 7        44.828               
> 2023 01 31 10 35 55.0000000  0  4                                             
G17  22103572.976 6 116160532.717 6      1666.073 6        41.850               
G19  23433704.520 6 123150316.022 6      3065.490 6        36.428               
G03  23195936.968 5 121900919.672 5      3088.903 5        35.907               
G30  21329428.496 7 112092398.576 7       439.685 7        43.829               
> 2023 01 31 10 35 56.0000000  0  4                                             
G17  22103209.154 7 116158867.908 7      1665.097 7        42.341               
G19  23433053.212 6 123147240.397 6      3071.107 6        36.644               
G03  23195281.184 6 121897832.660 6      3091.545 6        36.473               
G30  21329298.472 7 112091961.077 7       438.185 7        43.911               
> 2023 01 31 10 35 57.0000000  0  4                                             
G17  22102836.728 7 116157202.650 7      1664.024 7        42.248               
G19  23432412.286 6 123144164.455 6      3075.289 6        36.793               
G03  23194650.863 6 121894745.548 6      3082.356 6        36.731               
G30  21329162.641 7 112091523.642 7       436.764 7        43.904               
> 2023 01 31 10 35 58.0000000  0  4                                             
G17  22102466.115 7 116155537.088 7      1666.048 7        42.186               
G19  23431771.467 6 123141088.251 6      3077.973 6        36.601               
G03  23193994.436 6 121891658.413 6      3092.190 6        36.811               
G30  21329025.568 7 112091086.386 7       437.224 7        44.242               
> 2023 01 31 10 35 59.0000000  0  4                                             
G17  22102087.551 7 116153871.142 7      1665.357 7        42.406               
G19  23431132.667 6 123138011.749 6      3076.731 6        36.649               
G03  23193351.660 6 121888571.265 6      3084.199 6        36.880               
G30  21328890.433 7 112090649.235 7       438.731 7        44.068               
> 2023 01 31 10 36 00.0000000  0  4                                             
G17  22101719.958 6 116152204.753 6      1669.066 6        41.838               
G19  23430491.250 6 123134934.839 6      3087.819 6        36.317               
G03  23192724.315 6 121885483.991 6      3089.108 6        36.618               
G30  21328750.188 7 112090212.148 7       437.692 7        44.088               
> 2023 01 31 10 36 01.0000000  0  4                                             
G17  22101348.729 6 116150537.842 6      1667.516 6        41.321               
G19  23429849.323 6 123131857.500 6      3076.056 6        36.168               
G03  23192070.210 6 121882396.536 6      3089.498 6        36.432               
G30  21328613.294 7 112089775.022 7       438.236 7        44.666               
> 2023 01 31 10 36 02.0000000  0  4                                             
G17  22100974.373 7 116148870.981 7      1666.034 7        42.375               
G19  23429206.136 6 123128780.259 6      3079.183 6        36.296               
G03  23191437.164 6 121879309.440 6      3087.455 6        37.012               
G30  21328471.458 7 112089338.457 7       434.995 7        44.345               
> 2023 01 31 10 36 03.0000000  0  4                                             
G17  22100599.982 6 116147203.302 6      1667.496 6        41.964               
G19  23428577.200 6 123125702.269 6      3080.905 6        36.643               
G03  23190787.741 6 121876221.869 6      3087.943 6        36.399               
G30  21328334.340 7 112088901.539 7       436.428 7        44.100               
> 2023 01 31 10 36 04.0000000  0  4                                             
G17  22100227.305 6 116145535.364 6      1671.013 6        41.702               
G19  23427930.333 6 123122624.140 6      3088.110 6        36.513               
G03  23190140.686 5 121873134.402 5      3090.074 5        35.916               
G30  21328197.463 7 112088464.884 7       439.145 7        44.445               
> 2023 01 31 10 36 05.0000000  0  4                                             
G17  22099861.598 6 116143867.263 6      1669.185 6        41.503               
G19  23427287.477 6 123119545.887 6      3093.740 6        36.067               
G03  23189507.587 6 121870047.041 6      3087.495 6        36.723               
G30  21328053.770 7 112088028.562 7       435.787 7        44.668               
> 2023 01 31 10 36 06.0000000  0  4                                             
G17  22099494.523 6 116142198.685 6      1669.875 6        41.769               
G19  23426647.114 5 123116467.207 5      3085.512 5        35.711               
G03  23188862.041 6 121866959.595 6      3087.402 6        36.596               
G30  21327914.427 7 112087592.248 7       437.237 7        44.293               
> 2023 01 31 10 36 07.0000000  0  4                                             
G17  22099114.503 7 116140529.648 7      1669.095 7        42.025               
G19  23426005.419 5 123113388.216 5      3080.091 5        35.773               
G03  23188220.919 6 121863871.994 6      3090.542 6        36.463               
G30  21327779.310 7 112087155.975 7       437.115 7        44.314               
> 2023 01 31 10 36 08.0000000  0  4                                             
G17  22098739.343 6 116138860.271 6      1672.721 6        41.618               
G19  23425364.645 6 123110308.874 6      3079.426 6        36.383               
G03  23187580.940 6 121860784.388 6      3096.818 6        36.591               
G30  21327642.166 7 112086719.857 7       434.743 7        44.355               
> 2023 01 31 10 36 09.0000000  0  4                                             
G17  22098369.365 6 116137190.428 6      1670.924 6        41.494               
G19  23424722.271 6 123107229.189 6      3067.862 6        36.318               
G03  23186941.318 6 121857696.668 6      3094.485 6        36.249               
G30  21327507.514 7 112086283.799 7       434.583 7        44.641               
> 2023 01 31 10 36 10.0000000  0  4                                             
G17  22097994.866 6 116135520.008 6      1670.224 6        41.455               
G19  23424078.611 6 123104148.982 6      3077.212 6        36.241               
G03  23186294.719 6 121854608.665 6      3087.212 6        36.299               
G30  21327372.558 7 112085847.611 7       436.719 7        44.723               
> 2023 01 31 10 36 11.0000000  0  4                                             
G17  22097630.454 6 116133849.162 6      1670.721 6        41.914               
G19  23423443.475 5 123101068.353 5      3084.377 5        35.462               
G03  23185648.548 6 121851520.607 6      3090.136 6        36.322               
G30  21327230.865 7 112085411.529 7       434.768 7        44.665               
> 2023 01 31 10 36 37.0000000  0  4                                             
G17  22087907.704 6 116072909.754 6      1680.393 6        41.305               
G19  23406752.556 6 123003514.121 6      3087.922 6        36.480               
G03  23168946.658 5 121753817.906 5      3087.849 5        35.955               
G30  21323657.266 7 112056771.482 7       434.663 7        44.283               
> 2023 01 31 10 36 38.0000000  0  4                                             
G17  22087524.431 6 116071228.757 6      1680.756 6        41.389               
G19  23406102.812 5 123000425.325 5      3084.922 5        35.591               
G03  23168290.847 6 121750728.746 6      3085.352 6        36.090               
G30  21323516.137 7 112056338.578 7       430.256 7        44.779               
> 2023 01 31 10 36 39.0000000  0  4                                             
G17  22087163.647 6 116069547.604 6      1680.407 6        41.656               
G19  23405469.176 5 122997336.425 5      3097.643 5        35.996               
G03  23167632.168 5 121747639.752 5      3088.704 5        35.877               
G30  21323381.521 7 112055906.035 7       430.568 7        44.671               
> 2023 01 31 10 36 40.0000000  0  4                                             
G17  22086777.595 6 116067865.969 6      1682.070 6        41.900               
G19  23404841.822 6 122994247.141 6      3083.643 6        36.376               
G03  23167009.933 5 121744550.645 5      3091.250 5        35.434               
G30  21323241.302 7 112055473.521 7       430.816 7        44.080               
> 2023 01 31 10 36 41.0000000  0  4                                             
G17  22086407.573 6 116066183.955 6      1682.083 6        41.758               
G19  23404193.650 6 122991157.514 6      3085.901 6        36.811               
G03  23166376.610 5 121741461.465 5      3088.599 5        35.716               
G30  21323104.309 7 112055041.108 7       432.464 7        44.041               
> 2023 01 31 10 36 42.0000000  0  4                                             
G17  22086025.774 6 116064501.621 6      1683.053 6        41.490               
G19  23403538.178 6 122988067.675 6      3088.441 6        36.601               
G03  23165717.654 6 121738372.331 6      3085.429 6        36.492               
G30  21322960.794 7 112054608.881 7       432.971 7        44.506               
> 2023 01 31 10 36 43.0000000  0  4                                             
G17  22085652.231 6 116062818.965 6      1682.674 6        41.964               
G19  23402892.535 6 122984977.555 6      3091.383 6        36.143               
G03  23165076.782 6 121735283.166 6      3086.127 6        36.323               
G30  21322824.972 7 112054176.814 7       432.890 7        44.805               
> 2023 01 31 10 36 44.0000000  0  4                                             
G17  22085277.375 7 116061136.069 7      1684.960 7        42.239               
G19  23402264.260 6 122981887.283 6      3091.928 6        36.388               
G03  23164446.380 6 121732194.145 6      3103.971 6        36.350               
G30  21322693.179 7 112053745.026 7       431.260 7        44.173               
> 2023 01 31 10 36 45.0000000  0  4                                             
G17  22084901.232 6 116059452.816 6      1684.636 6        41.688               
G19  23401613.175 6 122978796.729 6      3085.912 6        36.889               
G03  23163789.488 5 121729105.125 5      3084.912 5        35.787               
G30  21322559.018 7 112053313.348 7       430.190 7        44.106               
> 2023 01 31 10 36 46.0000000  0  4                                             
G17  22084525.196 7 116057768.997 7      1685.417 7        42.053               
G19  23400973.607 6 122975705.684 6      3094.312 6        37.035               
G03  23163147.633 6 121726015.840 6      3084.043 6        36.378               
G30  21322422.865 7 112052881.600 7       431.734 7        44.405               
> 2023 01 31 10 36 47.0000000  0  4                                             
G17  22084151.367 6 116056084.967 6      1681.749 6        41.828               
G19  23400331.680 6 122972614.498 6      3087.541 6        36.523               
G03  23162507.958 6 121722926.692 6      3088.067 6        36.573               
G30  21322283.844 7 112052450.151 7       431.566 7        44.530               
> 2023 01 31 10 36 48.0000000  0  4                                             
G17  22083776.556 6 116054400.799 6      1684.214 6        41.286               
G19  23399684.983 6 122969523.271 6      3094.558 6        36.492               
G03  23161868.309 6 121719837.718 6      3084.314 6        36.643               
G30  21322147.396 7 112052019.049 7       430.511 7        44.667               
> 2023 01 31 10 36 49.0000000  0  4                                             
G17  22083405.675 6 116052716.405 6      1682.586 6        41.470               
G19  23399037.624 6 122966431.838 6      3092.651 6        36.684               
G03  23161232.002 6 121716748.879 6      3086.156 6        36.101               
G30  21322010.002 7 112051588.198 7       433.337 7        44.230               
> 2023 01 31 10 36 50.0000000  0  4                                             
G17  22083023.814 6 116051031.707 6      1684.202 6        41.472               
G19  23398387.325 5 122963340.219 5      3090.186 5        35.810               
G03  23160586.895 6 121713660.073 6      3083.143 6        36.336               
G30  21321876.055 7 112051157.565 7       431.907 7        44.648               
> 2023 01 31 10 36 51.0000000  0  4                                             
G17  22082652.871 6 116049346.709 6      1682.440 6        41.598               
G19  23397751.956 5 122960248.327 5      3097.110 5        35.676               
G03  23159939.875 6 121710571.336 6      3086.117 6        36.593               
G30  21321735.632 7 112050727.133 7       430.893 7        44.407               
> 2023 01 31 10 36 52.0000000  0  4                                             
G17  22082275.924 6 116047661.117 6      1685.546 6        41.531               
G19  23397100.077 5 122957155.944 5      3087.130 5        35.656               
G03  23159300.674 6 121707482.303 6      3091.819 6        36.508               
G30  21321601.775 7 112050296.586 7       431.203 7        44.385               
> 2023 01 31 10 36 53.0000000  0  4                                             
G17  22081898.325 6 116045975.195 6      1690.250 6        41.297               
G19  23396458.999 5 122954063.261 5      3095.792 5        35.569               
G03  23158653.618 6 121704393.290 6      3084.055 6        36.654               
G30  21321460.082 7 112049866.194 7       431.946 7        44.264               
> 2023 01 31 10 36 54.0000000  0  4                                             
G17  22081526.872 6 116044289.080 6      1687.084 6        41.733               
G19  23395828.749 6 122950970.481 6      3086.374 6        36.787               
G03  23158009.235 6 121701304.424 6      3079.141 6        36.144               
G30  21321320.954 7 112049436.120 7       431.297 7        44.468               
> 2023 01 31 10 36 55.0000000  0  4                                             
G17  22081141.991 6 116042602.799 6      1686.271 6        41.216               
G19  23395192.934 6 122947877.616 6      3096.546 6        36.165               
G03  23157368.192 6 121698215.732 6      3089.107 6        36.282               
G30  21321186.052 7 112049006.367 7       429.186 7        44.290               
> 2023 01 31 10 36 56.0000000  0  4                                             
G17  22080767.841 6 116040915.925 6      1681.594 6        41.531               
G19  23394537.123 6 122944784.230 6      3101.100 6        36.145               
G03  23156733.181 6 121695126.800 6      3088.023 6        36.568               
G30  21321056.126 7 112048576.512 7       430.041 7        44.401               
> 2023 01 31 10 36 57.0000000  0  4                                             
G17  22080395.638 6 116039229.914 6      1686.479 6        41.537               
G19  23393887.548 6 122941691.767 6      3097.183 6        36.526               
G03  23156086.233 6 121692039.037 6      3085.699 6        36.230               
G30  21320916.507 7 112048148.031 7       426.563 7        44.652               
> 2023 01 31 10 36 58.0000000  0  4                                             
G17  22080023.489 6 116037544.413 6      1685.866 6        41.894               
G19  23393247.774 6 122938599.899 6      3096.989 6        36.270               
G03  23155453.982 5 121688952.162 5      3087.511 5        35.866               
G30  21320779.478 7 112047720.542 7       427.050 7        44.288               
> 2023 01 31 10 36 59.0000000  0  4                                             
G17  22079644.549 6 116035859.024 6      1684.509 6        41.697               
G19  23392600.487 6 122935508.247 6      3086.941 6        36.241               
G03  23154794.097 5 121685865.740 5      3085.204 5        35.965               
G30  21320647.417 7 112047293.678 7       424.747 7        44.220               
> 2023 01 31 10 37 00.0000000  0  4                                             
G17  22079269.899 6 116034173.459 6      1684.497 6        41.190               
G19  23391950.537 6 122932416.435 6      3092.112 6        36.502               
G03  23154145.139 5 121682779.502 5      3080.679 5        35.908               
G30  21320514.802 7 112046867.125 7       427.099 7        43.865               
> 2023 01 31 10 37 01.0000000  0  4                                             
G17  22078892.621 6 116032487.242 6      1685.016 6        41.328               
G19  23391308.646 6 122929324.068 6      3093.306 6        37.298               
G03  23153515.327 6 121679692.888 6      3083.442 6        36.691               
G30  21320375.924 7 112046440.398 7       425.154 7        43.878               
> 2023 01 31 10 37 02.0000000  0  4                                             
G17  22078515.111 6 116030800.665 6      1688.222 6        41.826               
G19  23390674.698 5 122926231.385 5      3097.574 5        35.857               
G03  23152877.743 6 121676606.283 6      3078.395 6        36.603               
G30  21320239.056 7 112046013.821 7       425.503 7        43.962               
> 2023 01 31 10 37 03.0000000  0  4                                             
G17  22078143.105 6 116029113.710 6      1683.787 6        41.712               
G19  23390034.567 6 122923138.404 6      3090.502 6        36.191               
G03  23152233.752 6 121673519.681 6      3082.485 6        36.085               
G30  21320103.037 7 112045587.363 7       427.151 7        44.181               
> 2023 01 31 10 37 04.0000000  0  4                                             
G17  22077763.951 6 116027426.417 6      1687.217 6        41.862               
G19  23389387.029 6 122920045.162 6      3099.925 6        36.212               
G03  23151590.440 6 121670433.043 6      3084.752 6        36.595               
G30  21319964.481 7 112045161.042 7       424.590 7        44.583               
> 2023 01 31 10 37 05.0000000  0  4                                             
G17  22077387.719 6 116025738.579 6      1687.564 6        41.467               
G19  23388751.660 6 122916951.472 6      3088.471 6        36.152               
G03  23150958.315 6 121667346.212 6      3080.846 6        36.549               
G30  21319824.397 7 112044734.692 7       427.249 7        43.832               
> 2023 01 31 10 37 06.0000000  0  4                                             
G17  22077009.637 6 116024049.957 6      1691.189 6        41.555               
G19  23388109.081 6 122913857.063 6      3092.039 6        36.296               
G03  23150307.480 6 121664258.947 6      3090.303 6        36.228               
G30  21319689.048 7 112044308.054 7       427.194 7        44.210               
> 2023 01 31 10 37 07.0000000  0  4                                             
G17  22076638.587 6 116022360.107 6      1688.347 6        41.589               
G19  23387460.543 6 122910761.486 6      3092.146 6        36.361               
G03  23149658.048 6 121661170.796 6      3083.647 6        36.389               
G30  21319553.324 7 112043880.657 7       425.666 7        44.691               
> 2023 01 31 10 37 08.0000000  0  4                                             
G17  22076260.532 6 116020669.993 6      1689.149 6        41.666               
G19  23386819.804 6 122907665.698 6      3093.997 6        36.680               
G03  23149017.667 6 121658082.713 6      3080.976 6        36.323               
G30  21319414.919 7 112043453.513 7       425.991 7        44.239               
> 2023 01 31 10 37 09.0000000  0  4                                             
G17  22075885.604 6 116018979.564 6      1691.141 6        41.812               
G19  23386170.230 6 122904569.682 6      3107.558 6        36.365               
G03  23148387.632 6 121654994.656 6      3092.133 6        36.627               
G30  21319283.796 7 112043026.557 7       428.501 7        43.885               
> 2023 01 31 10 37 10.0000000  0  4                                             
G17  22075502.581 6 116017288.176 6      1689.537 6        41.162               
G19  23385519.216 5 122901472.790 5      3104.659 5        35.970               
G03  23147737.530 6 121651906.000 6      3090.782 6        36.456               
G30  21319153.513 7 112042599.115 7       423.939 7        44.012               
> 2023 01 31 10 37 11.0000000  0  4                                             
G17  22075124.991 6 116015596.751 6      1692.253 6        41.304               
G19  23384879.836 6 122898375.963 6      3110.887 6        36.166               
G03  23147096.729 6 121648817.616 6      3091.154 6        37.046               
G30  21319014.224 7 112042172.134 7       424.641 7        44.321               
> 2023 01 31 10 37 12.0000000  0  4                                             
G17  22074754.477 6 116013906.239 6      1689.356 6        41.435               
G19  23384235.291 5 122895280.032 5      3104.957 5        35.246               
G03  23146455.911 6 121645730.517 6      3090.275 6        36.244               
G30  21318874.989 7 112041746.553 7       424.854 7        44.581               
> 2023 01 31 10 37 13.0000000  0  4                                             
G17  22074377.369 6 116012214.866 6      1693.910 6        41.559               
G19  23383595.214 6 122892183.376 6      3107.351 6        36.040               
G03  23145813.019 6 121642642.854 6      3092.779 6        36.050               
G30  21318741.927 7 112041320.612 7       426.782 7        44.412               
> 2023 01 31 10 37 14.0000000  0  4                                             
G17  22074005.631 6 116010522.034 6      1691.729 6        41.655               
G19  23382937.804 6 122889085.337 6      3095.690 6        36.072               
G03  23145167.876 6 121639554.148 6      3080.254 6        36.157               
G30  21318603.478 7 112040893.723 7       425.497 7        43.904               
> 2023 01 31 10 37 15.0000000  0  4                                             
G17  22073621.670 6 116008829.225 6      1692.107 6        41.930               
G19  23382293.733 6 122885987.391 6      3092.596 6        36.050               
G03  23144522.688 6 121636465.729 6      3083.952 6        36.758               
G30  21318464.734 7 112040467.332 7       425.121 7        43.967               
> 2023 01 31 10 37 16.0000000  0  4                                             
G17  22073249.289 6 116007137.095 6      1690.189 6        41.988               
G19  23381659.338 5 122882890.169 5      3097.625 5        35.615               
G03  23143893.609 6 121633378.340 6      3087.131 6        36.205               
G30  21318328.947 7 112040042.106 7       425.391 7        44.080               
> 2023 01 31 10 37 17.0000000  0  4                                             
G17  22072866.507 6 116005445.334 6      1690.997 6        41.319               
G19  23381021.735 5 122879793.375 5      3102.787 5        35.856               
G03  23143235.636 6 121630291.683 6      3084.577 6        36.640               
G30  21318195.698 7 112039617.748 7       423.863 7        44.395               
> 2023 01 31 10 37 18.0000000  0  4                                             
G17  22072499.907 6 116003752.877 6      1690.319 6        41.300               
G19  23380375.591 6 122876695.964 6      3094.551 6        36.250               
G03  23142584.899 5 121627204.666 5      3086.757 5        35.777               
G30  21318056.042 7 112039193.161 7       424.407 7        44.677               
> 2023 01 31 10 37 19.0000000  0  4                                             
G17  22072112.042 6 116002059.736 6      1696.950 6        41.487               
G19  23379730.466 5 122873597.953 5      3106.758 5        35.789               
G03  23141945.421 6 121624117.335 6      3089.208 6        36.338               
G30  21317926.849 7 112038768.417 7       424.304 7        44.137               
> 2023 01 31 10 37 20.0000000  0  4                                             
G17  22071744.708 6 116000366.022 6      1688.617 6        41.312               
G19  23379077.460 6 122870499.437 6      3094.050 6        36.174               
G03  23141314.975 6 121621029.706 6      3088.494 6        36.242               
G30  21317793.555 7 112038343.554 7       422.575 7        44.552               
> 2023 01 31 10 37 21.0000000  0  4                                             
G17  22071362.105 6 115998671.845 6      1693.901 6        41.841               
G19  23378428.440 5 122867400.498 5      3100.343 5        35.776               
G03  23140663.792 6 121617941.964 6      3088.962 6        36.488               
G30  21317655.741 7 112037918.727 7       424.715 7        44.793               
> 2023 01 31 10 37 22.0000000  0  4                                             
G17  22070986.320 7 115996977.298 7      1692.056 7        42.094               
G19  23377804.561 5 122864301.251 5      3099.338 5        35.734               
G03  23140029.182 6 121614854.201 6      3089.913 6        36.637               
G30  21317521.303 7 112037494.020 7       425.748 7        44.478               
> 2023 01 31 10 37 23.0000000  0  4                                             
G17  22070607.729 6 115995282.617 6      1690.039 6        41.958               
G19  23377133.463 5 122861201.944 5      3089.106 5        35.586               
G03  23139388.158 6 121611766.692 6      3089.643 6        36.598               
G30  21317384.257 7 112037069.665 7       422.980 7        44.229               
> 2023 01 31 10 37 24.0000000  0  4                                             
G17  22070228.405 6 115993587.721 6      1695.761 6        41.459               
G19  23376495.288 6 122858102.509 6      3099.544 6        36.315               
G03  23138745.767 6 121608679.267 6      3086.700 6        36.327               
G30  21317245.486 7 112036645.625 7       423.275 7        44.567               
> 2023 01 31 10 37 25.0000000  0  4                                             
G17  22069848.304 6 115991892.648 6      1694.282 6        41.355               
G19  23375860.724 6 122855002.972 6      3098.541 6        36.087               
G03  23138091.769 6 121605592.029 6      3087.164 6        36.600               
G30  21317113.121 7 112036221.872 7       424.436 7        44.678               
> 2023 01 31 10 37 26.0000000  0  4                                             
G17  22069475.396 6 115990196.945 6      1694.113 6        40.814               
G19  23375229.590 6 122851902.874 6      3100.046 6        36.493               
G03  23137457.133 6 121602504.492 6      3089.349 6        36.636               
G30  21316973.278 7 112035797.989 7       422.619 7        43.695               
> 2023 01 31 10 37 27.0000000  0  4                                             
G17  22069092.427 6 115988501.037 6      1690.700 6        41.516               
G19  23374576.388 5 122848802.688 5      3095.849 5        35.864               
G03  23136813.875 6 121599417.116 6      3079.113 6        36.290               
G30  21316830.361 7 112035374.400 7       425.269 7        43.708               
> 2023 01 31 10 37 28.0000000  0  4                                             
G17  22068721.832 6 115986804.796 6      1696.395 6        41.710               
G19  23373931.968 5 122845702.189 5      3094.524 5        35.973               
G03  23136161.897 6 121596329.755 6      3089.387 6        36.606               
G30  21316705.091 7 112034951.004 7       425.021 7        43.536               
> 2023 01 31 10 37 29.0000000  0  4                                             
G17  22068340.364 6 115985108.228 6      1699.019 6        41.187               
G19  23373288.245 6 122842601.484 6      3102.750 6        36.221               
G03  23135540.457 6 121593242.411 6      3093.355 6        36.144               
G30  21316569.000 7 112034527.749 7       424.933 7        43.678               
> 2023 01 31 10 37 30.0000000  0  4                                             
G17  22067972.557 6 115983411.252 6      1698.352 6        41.686               
G19  23372636.410 5 122839500.378 5      3096.362 5        35.640               
G03  23134893.473 6 121590155.007 6      3081.639 6        36.686               
G30  21316434.473 7 112034104.584 7       425.183 7        44.532               
> 2023 01 31 10 37 31.0000000  0  4                                             
G17  22067588.480 6 115981713.869 6      1696.904 6        41.115               
G19  23371986.648 5 122836398.985 5      3089.070 5        35.309               
G03  23134254.986 6 121587067.545 6      3089.422 6        36.477               
G30  21316300.974 7 112033681.514 7       421.947 7        44.595               
> 2023 01 31 10 37 32.0000000  0  4                                             
G17  22067210.050 6 115980016.097 6      1697.783 6        40.940               
G19  23371336.046 5 122833297.250 5      3104.465 5        35.656               
G03  23133610.638 6 121583980.013 6      3081.987 6        36.149               
G30  21316165.268 7 112033258.525 7       423.694 7        43.689               
> 2023 01 31 10 37 33.0000000  0  4                                             
G17  22066829.253 6 115978318.258 6      1698.187 6        40.860               
G19  23370712.524 6 122830195.474 6      3102.298 6        36.035               
G03  23132965.888 5 121580892.725 5      3080.453 5        35.826               
G30  21316027.864 7 112032835.960 7       419.687 7        43.965               
> 2023 01 31 10 37 34.0000000  0  4                                             
G17  22066451.850 6 115976619.914 6      1697.214 6        41.723               
G19  23370055.721 5 122827093.293 5      3115.105 5        35.547               
G03  23132323.175 6 121577805.319 6      3102.720 6        36.457               
G30  21315894.320 7 112032413.385 7       420.866 7        44.336               
> 2023 01 31 10 37 35.0000000  0  4                                             
G17  22066077.601 6 115974921.288 6      1701.037 6        41.276               
G19  23369409.291 5 122823990.932 5      3099.259 5        35.959               
G03  23131679.426 6 121574717.978 6      3081.947 6        36.163               
G30  21315756.004 7 112031991.035 7       422.052 7        43.906               
> 2023 01 31 10 37 36.0000000  0  4                                             
G17  22065700.163 6 115973222.226 6      1701.379 6        41.061               
G19  23368770.670 5 122820888.160 5      3096.818 5        35.665               
G03  23131029.824 6 121571630.552 6      3088.842 6        36.781               
G30  21315617.859 7 112031568.723 7       423.097 7        44.781               
> 2023 01 31 10 37 55.0000000  0  4                                             
G17  22058501.439 6 115918410.100 6      1703.753 6        41.922               
G19  23356503.801 6 122761917.350 6      3089.298 6        37.042               
G03  23118831.294 6 121490485.708 6      3084.912 6        36.572               
G30  21313066.404 7 112001156.298 7       416.164 7        44.420               
> 2023 01 31 10 37 56.0000000  0  4                                             
G17  22058126.467 6 115916706.017 6      1704.806 6        41.500               
G19  23355861.400 5 122758811.076 5      3103.572 5        35.776               
G03  23118191.226 6 121487400.263 6      3091.336 6        36.573               
G30  21312926.838 7 112000738.899 7       416.790 7        44.166               
> 2023 01 31 10 37 57.0000000  0  4                                             
G17  22057742.425 6 115915002.219 6      1705.419 6        41.664               
G19  23355207.171 5 122755705.174 5      3109.391 5        35.899               
G03  23117557.305 6 121484315.406 6      3087.175 6        36.066               
G30  21312787.272 7 112000322.269 7       415.315 7        44.127               
> 2023 01 31 10 37 58.0000000  0  4                                             
G17  22057367.676 6 115913298.483 6      1702.130 6        41.792               
G19  23354563.654 6 122752599.389 6      3110.363 6        36.181               
G03  23116907.015 6 121481231.025 6      3082.258 6        36.225               
G30  21312661.313 7 111999906.184 7       417.516 7        44.266               
> 2023 01 31 10 37 59.0000000  0  4                                             
G17  22056986.861 6 115911594.122 6      1705.865 6        41.455               
G19  23353928.052 5 122749493.102 5      3099.678 5        35.754               
G03  23116268.242 6 121478146.310 6      3086.002 6        36.217               
G30  21312530.262 7 111999489.980 7       417.567 7        44.166               
> 2023 01 31 10 38 00.0000000  0  4                                             
G17  22056616.454 6 115909889.308 6      1700.110 6        41.629               
G19  23353278.049 5 122746386.382 5      3104.540 5        35.724               
G03  23115627.343 6 121475061.501 6      3083.626 6        36.761               
G30  21312399.425 7 111999073.807 7       412.241 7        44.280               
> 2023 01 31 10 38 01.0000000  0  4                                             
G17  22056227.123 6 115908184.461 6      1708.165 6        41.577               
G19  23352632.253 5 122743279.717 5      3099.568 5        35.904               
G03  23114989.026 6 121471977.069 6      3090.283 6        36.130               
G30  21312260.645 7 111998658.109 7       417.373 7        44.339               
> 2023 01 31 10 38 02.0000000  0  4                                             
G17  22055849.247 6 115906479.072 6      1708.572 6        41.523               
G19  23351979.471 5 122740172.595 5      3108.129 5        35.856               
G03  23114336.735 6 121468892.381 6      3086.389 6        36.379               
G30  21312126.815 7 111998242.357 7       416.501 7        44.045               
> 2023 01 31 10 38 03.0000000  0  4                                             
G17  22055472.586 7 115904773.436 7      1705.315 7        42.153               
G19  23351332.085 6 122737065.259 6      3107.242 6        36.128               
G03  23113693.950 5 121465807.818 5      3082.401 5        35.991               
G30  21311997.050 7 111997826.840 7       416.938 7        44.066               
> 2023 01 31 10 38 04.0000000  0  4                                             
G17  22055098.382 6 115903067.431 6      1706.946 6        41.759               
G19  23350689.506 6 122733957.624 6      3108.123 6        36.723               
G03  23113058.153 6 121462723.211 6      3081.451 6        36.335               
G30  21311858.762 7 111997411.461 7       416.037 7        44.035               
> 2023 01 31 10 38 05.0000000  0  4                                             
G17  22054707.765 6 115901361.258 6      1705.244 6        41.885               
G19  23350041.352 6 122730849.928 6      3100.354 6        36.355               
G03  23112424.303 6 121459638.813 6      3087.004 6        36.296               
G30  21311718.213 7 111996996.410 7       415.208 7        43.756               
> 2023 01 31 10 38 06.0000000  0  4                                             
G17  22054333.454 6 115899654.693 6      1706.206 6        41.805               
G19  23349396.129 6 122727741.916 6      3106.226 6        36.168               
G03  23111778.972 6 121456554.365 6      3073.033 6        36.478               
G30  21311585.714 7 111996581.437 7       416.134 7        44.129               
> 2023 01 31 10 38 07.0000000  0  4                                             
G17  22053944.642 6 115897947.647 6      1705.275 6        41.854               
G19  23348743.078 6 122724633.472 6      3108.709 6        36.486               
G03  23111128.271 6 121453469.777 6      3083.217 6        36.288               
G30  21311459.380 7 111996166.501 7       414.084 7        44.515               
> 2023 01 31 10 38 08.0000000  0  4                                             
G17  22053569.598 7 115896240.506 7      1707.268 7        42.095               
G19  23348099.669 6 122721525.023 6      3118.334 6        37.014               
G03  23110489.498 6 121450385.443 6      3083.018 6        36.699               
G30  21311322.092 7 111995751.934 7       414.216 7        44.020               
> 2023 01 31 10 38 09.0000000  0  4                                             
G17  22053194.518 6 115894533.036 6      1707.698 6        41.973               
G19  23347456.482 6 122718416.289 6      3116.454 6        36.111               
G03  23109843.578 6 121447301.170 6      3085.008 6        36.345               
G30  21311193.668 7 111995337.559 7       413.915 7        44.129               
> 2023 01 31 10 38 10.0000000  0  4                                             
G17  22052816.838 7 115892825.172 7      1706.531 7        42.185               
G19  23346800.483 6 122715307.280 6      3106.373 6        36.279               
G03  23109203.697 6 121444216.841 6      3086.434 6        36.266               
G30  21311060.320 7 111994923.269 7       413.619 7        44.044               
> 2023 01 31 10 38 11.0000000  0  4                                             
G17  22052437.532 6 115891117.020 6      1707.647 6        41.677               
G19  23346160.790 6 122712198.044 6      3119.264 6        36.040               
G03  23108562.217 5 121441132.530 5      3084.813 5        35.715               
G30  21310924.346 7 111994509.183 7       418.352 7        44.010               
> 2023 01 31 10 38 12.0000000  0  4                                             
G17  22052065.053 7 115889408.318 7      1708.985 7        42.027               
G19  23345511.189 6 122709088.298 6      3107.145 6        36.345               
G03  23107924.776 6 121438048.071 6      3084.462 6        36.044               
G30  21310788.621 7 111994095.054 7       414.694 7        43.858               
> 2023 01 31 10 38 13.0000000  0  4                                             
G17  22051672.041 7 115887699.458 7      1710.379 7        42.357               
G19  23344856.405 5 122705978.479 5      3111.164 5        35.975               
G03  23107289.791 5 121434963.778 5      3079.075 5        35.957               
G30  21310656.954 7 111993681.250 7       415.663 7        43.838               
> 2023 01 31 10 38 14.0000000  0  4                                             
G17  22051292.503 6 115885990.420 6      1710.877 6        41.946               
G19  23344229.765 5 122702868.560 5      3111.158 5        35.917               
G03  23106638.510 5 121431879.654 5      3080.699 5        35.984               
G30  21310520.827 7 111993267.762 7       415.159 7        43.824               
> 2023 01 31 10 38 15.0000000  0  4                                             
G17  22050914.136 6 115884281.322 6      1709.275 6        41.448               
G19  23343586.266 6 122699758.658 6      3097.895 6        36.140               
G03  23105999.772 6 121428795.795 6      3097.115 6        36.191               
G30  21310383.852 7 111992854.707 7       413.305 7        43.805               
> 2023 01 31 10 38 16.0000000  0  4                                             
G17  22050521.991 6 115882571.864 6      1708.685 6        41.210               
G19  23342928.552 6 122696648.466 6      3108.116 6        36.199               
G03  23105361.795 6 121425711.997 6      3084.035 6        36.621               
G30  21310250.585 7 111992441.781 7       413.196 7        44.155               
> 2023 01 31 10 38 17.0000000  0  4                                             
G17  22050154.952 6 115880862.004 6      1711.039 6        41.508               
G19  23342282.792 6 122693537.925 6      3108.421 6        36.196               
G03  23104715.740 6 121422628.135 6      3088.653 6        36.034               
G30  21310122.455 7 111992028.939 7       413.623 7        43.780               
> 2023 01 31 10 38 18.0000000  0  4                                             
G17  22049764.487 7 115879151.622 7      1708.536 7        42.193               
G19  23341646.601 6 122690426.922 6      3111.537 6        36.421               
G03  23104073.322 6 121419544.064 6      3089.205 6        36.257               
G30  21309995.121 7 111991616.061 7       413.288 7        43.638               
> 2023 01 31 10 38 19.0000000  0  4                                             
G17  22049398.333 7 115877440.922 7      1710.317 7        42.078               
G19  23340994.078 5 122687315.736 5      3117.663 5        35.962               
G03  23103432.923 6 121416460.043 6      3086.330 6        36.813               
G30  21309852.910 7 111991203.392 7       412.309 7        44.101               
> 2023 01 31 10 38 20.0000000  0  4                                             
G17  22049010.325 7 115875730.090 7      1710.584 7        42.056               
G19  23340345.478 6 122684204.472 6      3116.558 6        36.130               
G03  23102791.121 6 121413376.265 6      3091.864 6        36.937               
G30  21309721.108 7 111990791.080 7       410.703 7        43.878               
> 2023 01 31 10 38 21.0000000  0  4                                             
G17  22048631.440 6 115874018.957 6      1712.404 6        41.785               
G19  23339685.834 6 122681092.942 6      3114.546 6        36.434               
G03  23102139.000 6 121410292.519 6      3083.791 6        36.273               
G30  21309590.825 7 111990378.922 7       412.385 7        44.355               
> 2023 01 31 10 38 22.0000000  0  4                                             
G17  22048250.677 6 115872307.430 6      1709.101 6        41.928               
G19  23339040.503 6 122677981.125 6      3097.701 6        37.051               
G03  23101516.408 5 121407208.729 5      3086.553 5        35.974               
G30  21309450.884 7 111989966.887 7       411.106 7        44.228               
> 2023 01 31 10 38 23.0000000  0  4                                             
G17  22047877.849 6 115870595.699 6      1710.845 6        41.792               
G19  23338399.371 6 122674869.168 6      3101.260 6        36.647               
G03  23100871.381 6 121404125.087 6      3072.594 6        36.043               
G30  21309321.146 7 111989555.137 7       412.501 7        44.330               
> 2023 01 31 10 38 24.0000000  0  4                                             
G17  22047485.231 6 115868883.683 6      1712.779 6        41.950               
G19  23337759.866 6 122671756.989 6      3117.893 6        36.692               
G03  23100231.152 6 121401041.527 6      3087.146 6        36.068               
G30  21309181.687 7 111989143.596 7       412.371 7        44.324               
> 2023 01 31 10 38 25.0000000  0  4                                             
G17  22047112.358 6 115867170.762 6      1712.907 6        41.713               
G19  23337103.233 6 122668643.979 6      3114.927 6        36.219               
G03  23099582.676 6 121397957.399 6      3087.124 6        36.843               
G30  21309051.994 7 111988731.636 7       409.277 7        43.851               
> 2023 01 31 10 38 26.0000000  0  4                                             
G17  22046726.655 7 115865458.158 7      1714.368 7        42.040               
G19  23336466.854 6 122665531.371 6      3110.331 6        36.663               
G03  23098941.080 6 121394873.943 6      3077.639 6        36.873               
G30  21308923.185 7 111988320.487 7       412.265 7        43.817               
> 2023 01 31 10 38 27.0000000  0  4                                             
G17  22046341.310 6 115863745.740 6      1712.379 6        41.611               
G19  23335812.294 6 122662419.002 6      3114.823 6        36.039               
G03  23098301.726 6 121391791.022 6      3088.755 6        37.083               
G30  21308793.348 7 111987910.007 7       410.733 7        43.472               
> 2023 01 31 10 38 28.0000000  0  4                                             
G17  22045968.196 6 115862032.643 6      1714.211 6        41.717               
G19  23335169.340 6 122659306.039 6      3115.642 6        36.753               
G03  23097642.949 6 121388707.774 6      3080.823 6        36.900               
G30  21308661.028 7 111987499.357 7       412.935 7        43.289               
> 2023 01 31 10 38 29.0000000  0  4                                             
G17  22045586.084 6 115860319.340 6      1711.324 6        41.434               
G19  23334520.274 6 122656192.944 6      3113.673 6        36.915               
G03  23097016.782 6 121385624.688 6      3084.789 6        36.552               
G30  21308521.561 7 111987088.992 7       411.117 7        43.677               
> 2023 01 31 10 38 30.0000000  0  4                                             
G17  22045208.637 6 115858605.642 6      1712.729 6        41.950               
G19  23333869.315 6 122653079.509 6      3112.885 6        36.848               
G03  23096386.184 6 121382541.574 6      3080.980 6        36.521               
G30  21308389.920 7 111986678.721 7       411.508 7        43.938               
> 2023 01 31 10 38 31.0000000  0  4                                             
G17  22044820.236 6 115856891.420 6      1713.277 6        41.907               
G19  23333231.042 6 122649965.650 6      3120.237 6        36.641               
G03  23095732.223 6 121379458.259 6      3080.102 6        36.466               
G30  21308257.608 7 111986268.411 7       411.275 7        44.076               
> 2023 01 31 10 38 32.0000000  0  4                                             
G17  22044442.315 7 115855177.286 7      1716.362 7        42.031               
G19  23332571.050 6 122646851.922 6      3117.856 6        36.418               
G03  23095090.591 5 121376375.394 5      3086.128 5        35.874               
G30  21308117.614 7 111985858.677 7       410.925 7        44.197               
> 2023 01 31 10 38 33.0000000  0  4                                             
G17  22044063.545 6 115853462.065 6      1715.200 6        41.637               
G19  23331940.917 6 122643737.195 6      3129.711 6        36.555               
G03  23094444.662 6 121373291.793 6      3079.292 6        36.483               
G30  21307985.177 7 111985448.369 7       411.080 7        43.721               
> 2023 01 31 10 38 34.0000000  0  4                                             
G17  22043679.183 6 115851747.356 6      1714.374 6        41.542               
G19  23331286.839 6 122640623.083 6      3111.579 6        36.686               
G03  23093808.176 6 121370209.054 6      3083.302 6        36.102               
G30  21307853.867 7 111985039.066 7       407.780 7        43.675               
> 2023 01 31 10 38 35.0000000  0  4                                             
G17  22043293.274 6 115850032.487 6      1714.658 6        41.716               
G19  23330640.516 6 122637508.863 6      3114.754 6        36.137               
G03  23093175.228 5 121367126.537 5      3082.009 5        35.011               
G30  21307724.861 7 111984630.083 7       410.206 7        43.892               
> 2023 01 31 10 38 36.0000000  0  4                                             
G17  22042918.355 6 115848317.084 6      1718.021 6        41.944               
G19  23329981.471 6 122634394.152 6      3120.328 6        36.425               
G03  23092521.892 5 121364043.821 5      3083.337 5        35.981               
G30  21307595.829 7 111984221.062 7       406.984 7        44.085               
> 2023 01 31 10 38 37.0000000  0  4                                             
G17  22042534.895 7 115846601.242 7      1717.245 7        42.039               
G19  23329337.489 6 122631279.121 6      3119.941 6        36.090               
G03  23091890.347 5 121360961.015 5      3086.629 5        35.827               
G30  21307465.305 7 111983812.081 7       409.467 7        43.976               
> 2023 01 31 10 38 38.0000000  0  4                                             
G17  22042155.214 7 115844885.055 7      1716.215 7        42.260               
G19  23328676.210 6 122628163.810 6      3116.483 6        36.005               
G03  23091246.553 6 121357878.222 6      3083.509 6        36.315               
G30  21307325.855 7 111983403.274 7       406.822 7        43.732               
> 2023 01 31 10 38 39.0000000  0  4                                             
G17  22041766.777 6 115843168.218 6      1717.237 6        41.960               
G19  23328044.951 6 122625047.916 6      3114.019 6        36.048               
G03  23090605.707 5 121354795.162 5      3074.316 5        35.863               
G30  21307196.260 7 111982994.288 7       406.595 7        44.137               
> 2023 01 31 10 38 40.0000000  0  4                                             
G17  22041387.195 7 115841451.171 7      1718.678 7        42.018               
G19  23327389.140 6 122621931.874 6      3120.310 6        36.331               
G03  23089967.229 5 121351712.238 5      3086.677 5        35.865               
G30  21307061.742 7 111982585.602 7       411.445 7        43.831               
> 2023 01 31 10 38 41.0000000  0  4                                             
G17  22041017.324 6 115839733.741 6      1717.985 6        41.840               
G19  23326748.455 5 122618815.529 5      3125.756 5        35.705               
G03  23089313.947 6 121348629.273 6      3081.177 6        36.265               
G30  21306926.223 7 111982177.008 7       405.421 7        43.862               
> 2023 01 31 10 38 42.0000000  0  4                                             
G17  22040624.661 7 115838016.364 7      1718.017 7        42.235               
G19  23326096.370 6 122615699.320 6      3115.751 6        36.123               
G03  23088682.036 6 121345546.727 6      3080.836 6        36.547               
G30  21306793.045 7 111981768.973 7       407.161 7        44.049               
> 2023 01 31 10 38 43.0000000  0  4                                             
G17  22040249.170 6 115836298.707 6      1717.159 6        41.767               
G19  23325454.863 6 122612582.925 6      3120.308 6        36.576               
G03  23088029.557 6 121342464.252 6      3092.193 6        36.298               
G30  21306665.872 7 111981361.159 7       408.219 7        43.928               
> 2023 01 31 10 38 44.0000000  0  4                                             
G17  22039859.902 6 115834580.190 6      1716.056 6        41.927               
G19  23324802.501 6 122609465.691 6      3119.331 6        36.329               
G03  23087388.497 6 121339381.278 6      3079.373 6        36.170               
G30  21306533.176 7 111980952.965 7       408.852 7        43.775               
> 2023 01 31 10 38 45.0000000  0  4                                             
G17  22039483.134 6 115832861.242 6      1718.789 6        41.854               
G19  23324142.598 6 122606348.111 6      3114.113 6        36.929               
G03  23086746.704 6 121336298.245 6      3078.068 6        36.288               
G30  21306403.983 7 111980544.837 7       405.767 7        43.527               
> 2023 01 31 10 38 46.0000000  0  4                                             
G17  22039100.844 7 115831142.459 7      1716.224 7        42.139               
G19  23323514.278 6 122603230.805 6      3116.156 6        36.371               
G03  23086106.019 6 121333215.690 6      3077.661 6        36.345               
G30  21306272.959 7 111980137.362 7       406.660 7        44.119               
> 2023 01 31 10 38 47.0000000  0  4                                             
G17  22038723.182 6 115829423.099 6      1715.046 6        41.957               
G19  23322842.296 6 122600112.962 6      3118.558 6        36.506               
G03  23085467.497 6 121330132.943 6      3082.003 6        36.022               
G30  21306139.593 7 111979729.791 7       409.403 7        44.176               
> 2023 01 31 10 38 48.0000000  0  4                                             
G17  22038334.424 6 115827703.363 6      1719.389 6        41.737               
G19  23322214.781 5 122596994.815 5      3121.687 5        35.904               
G03  23084831.717 6 121327050.157 6      3082.400 6        36.451               
G30  21306004.414 7 111979322.331 7       408.057 7        44.140               
> 2023 01 31 10 38 49.0000000  0  4                                             
G17  22037957.039 6 115825983.577 6      1719.175 6        41.956               
G19  23321567.198 6 122593876.704 6      3122.077 6        36.120               
G03  23084197.697 5 121323967.707 5      3079.595 5        35.998               
G30  21305872.013 7 111978915.332 7       406.234 7        43.839               
> 2023 01 31 10 38 50.0000000  0  4                                             
G17  22037580.146 6 115824263.585 6      1719.905 6        41.571               
G19  23320921.644 6 122590758.468 6      3129.626 6        36.131               
G03  23083546.300 6 121320885.382 6      3087.110 6        36.228               
G30  21305729.151 7 111978508.631 7       408.972 7        44.092               
> 2023 01 31 10 38 51.0000000  0  4                                             
G17  22037196.784 7 115822543.388 7      1722.433 7        42.111               
G19  23320270.425 5 122587640.095 5      3118.939 5        35.763               
G03  23082900.906 6 121317803.227 6      3083.312 6        36.145               
G30  21305602.513 7 111978102.191 7       406.680 7        43.901               
> 2023 01 31 10 38 52.0000000  0  4                                             
G17  22036808.901 6 115820822.858 6      1721.354 6        41.975               
G19  23319623.871 5 122584521.458 5      3122.591 5        35.965               
G03  23082260.311 5 121314721.109 5      3083.354 5        35.966               
G30  21305473.731 7 111977695.926 7       404.908 7        43.516               
> 2023 01 31 10 38 53.0000000  0  4                                             
G17  22036425.762 6 115819101.851 6      1722.801 6        41.501               
G19  23318974.340 5 122581402.435 5      3116.952 5        35.432               
G03  23081611.549 5 121311638.840 5      3087.632 5        35.990               
G30  21305344.716 7 111977289.679 7       406.280 7        44.036               
> 2023 01 31 10 38 54.0000000  0  4                                             
G17  22036045.643 6 115817380.709 6      1719.837 6        41.698               
G19  23318313.205 6 122578283.320 6      3115.940 6        36.146               
G03  23080979.558 6 121308556.796 6      3079.495 6        36.741               
G30  21305212.977 7 111976883.773 7       406.124 7        43.993               
> 2023 01 31 10 38 55.0000000  0  4                                             
G17  22035659.735 6 115815658.504 6      1723.639 6        41.423               
G19  23317670.777 6 122575163.195 6      3126.185 6        36.548               
G03  23080340.785 6 121305474.082 6      3082.390 6        36.442               
G30  21305076.654 7 111976477.310 7       408.918 7        44.019               
> 2023 01 31 10 38 56.0000000  0  4                                             
G17  22035282.565 7 115813935.423 7      1720.607 7        42.179               
G19  23317018.201 5 122572042.320 5      3120.073 5        35.996               
G03  23079692.872 6 121302390.815 6      3081.202 6        36.068               
G30  21304949.731 7 111976070.466 7       406.489 7        43.451               
> 2023 01 31 10 38 57.0000000  0  4                                             
G17  22034893.940 7 115812212.982 7      1724.631 7        42.455               
G19  23316365.517 5 122568922.129 5      3121.822 5        35.926               
G03  23079053.858 6 121299308.600 6      3081.730 6        36.268               
G30  21304809.763 7 111975664.758 7       406.429 7        43.955               
> 2023 01 31 10 38 58.0000000  0  4                                             
G17  22034516.537 7 115810489.542 7      1724.393 7        42.058               
G19  23315729.531 6 122565801.028 6      3120.847 6        36.417               
G03  23078424.904 6 121296225.653 6      3079.255 6        36.640               
G30  21304675.932 7 111975258.526 7       406.279 7        43.770               
> 2023 01 31 10 38 59.0000000  0  4                                             
G17  22034133.586 7 115808767.273 7      1722.969 7        42.065               
G19  23315063.070 6 122562681.190 6      3122.974 6        36.535               
G03  23077778.304 6 121293144.319 6      3079.608 6        36.407               
G30  21304542.603 7 111974853.980 7       402.333 7        43.472               
> 2023 01 31 10 39 00.0000000  0  4                                             
G17  22033750.609 6 115807044.760 6      1720.628 6        41.679               
G19  23314437.342 6 122559561.107 6      3129.456 6        36.863               
G03  23077124.941 6 121290063.037 6      3082.494 6        36.001               
G30  21304419.771 7 111974449.657 7       405.454 7        44.064               
> 2023 01 31 10 39 01.0000000  0  4                                             
G17  22033365.424 6 115805321.868 6      1723.807 6        41.810               
G19  23313777.064 6 122556440.810 6      3118.671 6        36.515               
G03  23076492.691 6 121286981.768 6      3082.730 6        36.929               
G30  21304285.646 7 111974045.461 7       403.382 7        43.541               
> 2023 01 31 10 39 02.0000000  0  4                                             
G17  22032980.927 7 115803598.673 7      1725.051 7        42.038               
G19  23313131.090 5 122553320.222 5      3122.916 5        35.952               
G03  23075853.837 6 121283900.542 6      3082.033 6        36.713               
G30  21304156.248 7 111973641.440 7       401.816 7        43.658               
> 2023 01 31 10 39 03.0000000  0  4                                             
G17  22032602.694 7 115801875.190 7      1725.139 7        42.027               
G19  23312492.263 6 122550199.430 6      3126.814 6        36.450               
G03  23075205.397 6 121280819.381 6      3078.850 6        36.441               
G30  21304026.903 7 111973237.624 7       402.643 7        43.594               
> 2023 01 31 10 39 04.0000000  0  4                                             
G17  22032214.918 7 115800151.645 7      1722.827 7        42.110               
G19  23311829.769 6 122547078.657 6      3123.646 6        36.499               
G03  23074563.363 6 121277738.528 6      3079.622 6        36.152               
G30  21303891.322 7 111972834.242 7       401.414 7        43.696               
> 2023 01 31 10 39 05.0000000  0  4                                             
G17  22031835.139 6 115798427.752 6      1721.863 6        41.963               
G19  23311185.064 6 122543957.581 6      3118.794 6        36.439               
G03  23073926.449 6 121274657.788 6      3083.100 6        36.722               
G30  21303760.413 7 111972430.983 7       402.569 7        43.747               
> 2023 01 31 10 39 06.0000000  0  4                                             
G17  22031445.058 6 115796703.322 6      1725.064 6        41.708               
G19  23310551.464 6 122540836.049 6      3121.777 6        36.443               
G03  23073289.311 6 121271576.735 6      3079.751 6        36.066               
G30  21303626.190 7 111972027.701 7       403.563 7        43.573               
> 2023 01 31 10 39 07.0000000  0  4                                             
G17  22031066.771 6 115794978.716 6      1726.340 6        41.706               
G19  23309885.083 6 122537714.427 6      3124.297 6        36.804               
G03  23072641.827 5 121268495.909 5      3080.686 5        35.656               
G30  21303492.521 7 111971624.711 7       404.187 7        44.196               
> 2023 01 31 10 39 08.0000000  0  4                                             
G17  22030686.214 6 115793254.011 6      1725.805 6        41.529               
G19  23309235.392 6 122534592.791 6      3117.444 6        36.143               
G03  23071999.998 5 121265415.337 5      3081.000 5        35.809               
G30  21303361.282 7 111971222.136 7       400.074 7        44.278               
> 2023 01 31 10 39 09.0000000  0  4                                             
G17  22030299.886 6 115791529.067 6      1724.721 6        41.541               
G19  23308583.691 6 122531470.954 6      3119.185 6        36.041               
G03  23071363.611 6 121262334.858 6      3071.896 6        36.419               
G30  21303232.750 7 111970819.799 7       400.525 7        44.196               
> 2023 01 31 10 39 10.0000000  0  4                                             
G17  22029916.399 7 115789803.747 7      1724.645 7        42.110               
G19  23307938.477 5 122528348.834 5      3125.014 5        35.882               
G03  23070726.553 6 121259254.387 6      3078.930 6        36.340               
G30  21303108.578 7 111970417.605 7       399.493 7        43.878               
> 2023 01 31 10 39 11.0000000  0  4                                             
G17  22029532.626 6 115788078.235 6      1726.145 6        41.986               
G19  23307285.444 6 122525226.610 6      3131.854 6        36.371               
G03  23070082.071 6 121256174.084 6      3077.150 6        36.332               
G30  21302971.773 7 111970015.692 7       401.456 7        43.978               
> 2023 01 31 10 39 12.0000000  0  4                                             
G17  22029150.023 7 115786352.345 7      1724.885 7        42.019               
G19  23306635.950 5 122522104.110 5      3122.398 5        35.790               
G03  23069434.453 6 121253093.754 6      3084.282 6        36.512               
G30  21302840.462 7 111969613.902 7       402.736 7        43.631               
> 2023 01 31 10 39 13.0000000  0  4                                             
G17  22028760.898 6 115784626.206 6      1726.109 6        41.925               
G19  23305985.678 6 122518981.375 6      3120.839 6        36.641               
G03  23068790.498 6 121250013.549 6      3070.142 6        36.587               
G30  21302707.972 7 111969212.347 7       399.836 7        43.700               
> 2023 01 31 10 39 14.0000000  0  4                                             
G17  22028383.808 7 115782899.905 7      1724.804 7        42.080               
G19  23305353.660 6 122515858.588 6      3121.370 6        36.341               
G03  23068160.731 6 121246933.513 6      3080.733 6        36.018               
G30  21302572.329 7 111968811.126 7       399.752 7        44.340               
> 2023 01 31 10 39 15.0000000  0  4                                             
G17  22028005.342 7 115781173.348 7      1729.168 7        42.370               
G19  23304690.612 6 122512735.602 6      3125.225 6        36.506               
G03  23067525.943 6 121243853.618 6      3079.936 6        36.011               
G30  21302442.117 7 111968410.134 7       402.729 7        44.432               
> 2023 01 31 10 39 16.0000000  0  4                                             
G17  22027614.752 7 115779446.438 7      1728.357 7        42.406               
G19  23304036.945 6 122509612.358 6      3120.946 6        36.311               
G03  23066886.965 5 121240773.717 5      3081.677 5        35.665               
G30  21302314.309 7 111968009.289 7       401.700 7        43.977               
> 2023 01 31 10 39 17.0000000  0  4                                             
G17  22027234.580 7 115777719.261 7      1728.520 7        42.424               
G19  23303397.440 5 122506488.935 5      3123.896 5        35.996               
G03  23066231.279 5 121237693.908 5      3078.587 5        35.601               
G30  21302185.732 7 111967608.655 7       401.840 7        43.757               
> 2023 01 31 10 39 18.0000000  0  4                                             
G17  22026851.504 7 115775991.975 7      1725.384 7        42.297               
G19  23302743.880 5 122503365.421 5      3130.378 5        35.791               
G03  23065597.643 5 121234614.356 5      3078.574 5        35.984               
G30  21302054.868 7 111967208.412 7       399.516 7        43.510               
> 2023 01 31 10 39 19.0000000  0  4                                             
G17  22026469.205 7 115774264.427 7      1727.839 7        42.222               
G19  23302099.380 6 122500241.738 6      3127.255 6        36.071               
G03  23064951.741 6 121231534.882 6      3094.420 6        36.364               
G30  21301923.245 7 111966808.403 7       403.134 7        43.748               
> 2023 01 31 10 39 20.0000000  0  4                                             
G17  22026080.107 7 115772537.125 7      1726.152 7        42.349               
G19  23301438.289 5 122497118.399 5      3124.494 5        35.535               
G03  23064313.710 5 121228456.036 5      3079.797 5        35.946               
G30  21301793.311 7 111966409.127 7       395.516 7        43.636               
> 2023 01 31 10 39 21.0000000  0  4                                             
G17  22025702.115 7 115770809.826 7      1728.372 7        42.126               
G19  23300800.374 6 122493995.104 6      3127.680 6        36.095               
G03  23063678.582 5 121225377.548 5      3086.158 5        35.912               
G30  21301662.911 7 111966010.362 7       396.411 7        43.881               
> 2023 01 31 10 39 22.0000000  0  4                                             
G17  22025315.367 7 115769082.153 7      1727.712 7        42.151               
G19  23300145.724 6 122490871.533 6      3139.543 6        36.243               
G03  23063033.037 6 121222299.055 6      3086.003 6        36.131               
G30  21301526.607 7 111965611.697 7       399.619 7        44.097               
> 2023 01 31 10 39 23.0000000  0  4                                             
G17  22024931.334 7 115767353.561 7      1728.807 7        42.502               
G19  23299496.578 6 122487747.116 6      3125.880 6        36.246               
G03  23062388.412 6 121219220.023 6      3077.532 6        36.534               
G30  21301396.091 7 111965212.607 7       399.523 7        43.611               
> 2023 01 31 10 39 24.0000000  0  4                                             
G17  22024548.991 7 115765624.806 7      1728.207 7        42.280               
G19  23298857.180 6 122484622.626 6      3128.453 6        36.664               
G03  23061755.116 6 121216141.189 6      3079.451 6        36.516               
G30  21301265.567 7 111964813.861 7       400.023 7        44.253               
> 2023 01 31 10 39 25.0000000  0  4                                             
G17  22024166.013 7 115763895.397 7      1729.235 7        42.925               
G19  23298215.664 6 122481497.525 6      3115.850 6        36.380               
G03  23061095.918 6 121213062.007 6      3074.063 6        36.690               
G30  21301136.767 7 111964414.945 7       398.729 7        43.546               
> 2023 01 31 10 39 26.0000000  0  4                                             
G17  22023781.338 7 115762166.269 7      1728.559 7        42.602               
G19  23297557.378 6 122478372.779 6      3124.788 6        36.386               
G03  23060469.850 6 121209983.543 6      3075.052 6        36.035               
G30  21301011.192 7 111964016.805 7       398.046 7        42.951               
> 2023 01 31 10 39 27.0000000  0  4                                             
G17  22023392.686 7 115760436.672 7      1730.234 7        42.314               
G19  23296898.798 6 122475247.649 6      3122.064 6        36.411               
G03  23059828.996 5 121206904.910 5      3075.905 5        35.968               
G30  21300877.559 7 111963618.685 7       397.103 7        43.580               
> 2023 01 31 10 39 28.0000000  0  4                                             
G17  22023011.513 7 115758706.352 7      1729.239 7        42.521               
G19  23296243.076 6 122472121.894 6      3122.089 6        36.603               
G03  23059185.684 6 121203825.968 6      3079.731 6        36.138               
G30  21300752.842 7 111963220.334 7       398.447 7        43.837               
> 2023 01 31 10 39 29.0000000  0  4                                             
G17  22022631.966 6 115756975.742 6      1729.872 6        41.993               
G19  23295605.679 5 122468995.917 5      3124.712 5        35.992               
G03  23058544.258 6 121200747.082 6      3077.093 6        36.377               
G30  21300615.590 7 111962822.170 7       400.167 7        43.962               
> 2023 01 31 10 39 30.0000000  0  4                                             
G17  22022244.968 7 115755244.976 7      1731.752 7        42.099               
G19  23294954.996 5 122465869.863 5      3127.639 5        35.944               
G03  23057910.765 6 121197668.382 6      3083.021 6        36.337               
G30  21300482.868 7 111962424.363 7       396.489 7        43.593               
> 2023 01 31 10 39 31.0000000  0  4                                             
G17  22021858.961 7 115753514.458 7      1731.961 7        42.381               
G19  23294296.559 6 122462744.102 6      3126.213 6        36.835               
G03  23057264.326 5 121194590.323 5      3077.357 5        35.652               
G30  21300352.263 7 111962027.285 7       395.363 7        43.834               
> 2023 01 31 10 39 32.0000000  0  4                                             
G17  22021475.421 6 115751783.501 6      1728.627 6        41.812               
G19  23293653.819 6 122459617.975 6      3130.711 6        36.297               
G03  23056620.094 5 121191512.160 5      3072.515 5        35.922               
G30  21300224.366 7 111961630.249 7       397.778 7        44.259               
> 2023 01 31 10 39 33.0000000  0  4                                             
G17  22021093.095 6 115750051.431 6      1732.710 6        41.968               
G19  23292997.999 5 122456490.829 5      3120.938 5        35.679               
G03  23055971.592 6 121188433.267 6      3081.790 6        36.043               
G30  21300100.551 7 111961232.607 7       398.787 7        44.238               
> 2023 01 31 10 39 34.0000000  0  4                                             
G17  22020708.858 7 115748319.047 7      1733.727 7        42.225               
G19  23292337.738 6 122453363.446 6      3124.532 6        36.119               
G03  23055344.479 6 121185354.421 6      3073.077 6        36.185               
G30  21299965.578 7 111960835.127 7       397.256 7        44.542               
> 2023 01 31 10 39 35.0000000  0  4                                             
G17  22020328.935 6 115746586.458 6      1730.933 6        41.933               
G19  23291691.818 5 122450235.901 5      3132.065 5        35.991               
G03  23054698.424 6 121182275.727 6      3076.724 6        36.821               
G30  21299828.254 7 111960437.938 7       395.252 7        44.107               
> 2023 01 31 10 39 36.0000000  0  4                                             
G17  22019933.869 7 115744853.519 7      1735.032 7        42.242               
G19  23291049.266 5 122447108.108 5      3128.192 5        35.222               
G03  23054064.458 6 121179197.032 6      3083.652 6        36.606               
G30  21299698.775 7 111960040.890 7       398.203 7        44.043               
> 2023 01 31 10 39 37.0000000  0  4                                             
G17  22019555.671 7 115743119.830 7      1734.726 7        42.115               
G19  23290409.037 5 122443979.623 5      3132.087 5        35.606               
G03  23053410.094 6 121176118.001 6      3074.593 6        36.226               
G30  21299572.209 7 111959643.588 7       397.478 7        44.210               
> 2023 01 31 10 39 38.0000000  0  4                                             
G17  22019168.655 6 115741386.344 6      1736.951 6        41.920               
G19  23289747.775 5 122440851.437 5      3125.089 5        35.680               
G03  23052779.979 5 121173039.483 5      3081.805 5        35.957               
G30  21299437.235 7 111959246.980 7       395.082 7        43.918               
> 2023 01 31 10 39 39.0000000  0  4                                             
G17  22018782.264 6 115739652.999 6      1734.386 6        41.575               
G19  23289098.201 5 122437723.426 5      3126.805 5        35.845               
G03  23052139.562 5 121169961.467 5      3084.174 5        35.779               
G30  21299308.587 7 111958850.994 7       395.265 7        44.450               
> 2023 01 31 10 39 40.0000000  0  4                                             
G17  22018404.593 6 115737919.300 6      1732.852 6        41.740               
G19  23288452.691 5 122434595.158 5      3120.823 5        35.329               
G03  23051496.483 6 121166883.490 6      3077.453 6        36.017               
G30  21299182.218 7 111958455.139 7       395.792 7        44.064               
> 2023 01 31 10 40 07.0000000  0  4                                             
G17  22008000.337 6 115653003.128 6      1736.713 6        41.753               
G19  23270889.568 6 122289591.671 6      3128.367 6        36.530               
G03  23034224.419 6 121083862.619 6      3072.791 6        36.640               
G30  21295685.893 7 111909819.358 7       386.864 7        43.899               
> 2023 01 31 10 40 08.0000000  0  4                                             
G17  22007617.484 6 115651264.839 6      1742.011 6        41.636               
G19  23270253.493 6 122286460.952 6      3133.187 6        36.969               
G03  23033571.968 6 121080790.293 6      3071.781 6        36.313               
G30  21295565.581 7 111909432.663 7       388.613 7        43.791               
> 2023 01 31 10 40 09.0000000  0  4                                             
G17  22007230.656 6 115649524.964 6      1736.832 6        41.735               
G19  23269600.390 6 122283328.643 6      3134.421 6        36.674               
G03  23032936.080 6 121077716.764 6      3075.910 6        36.345               
G30  21295439.711 7 111909044.857 7       386.834 7        43.890               
> 2023 01 31 10 40 10.0000000  0  4                                             
G17  22006845.444 6 115647785.628 6      1741.718 6        41.879               
G19  23268946.160 6 122280196.983 6      3125.564 6        36.799               
G03  23032294.851 6 121074644.120 6      3070.239 6        36.570               
G30  21295308.347 7 111908658.063 7       388.669 7        44.290               
> 2023 01 31 10 40 11.0000000  0  4                                             
G17  22006458.803 7 115646046.155 7      1738.821 7        42.095               
G19  23268295.960 6 122277065.244 6      3133.392 6        36.484               
G03  23031653.612 6 121071571.706 6      3069.256 6        36.066               
G30  21295181.504 7 111908271.654 7       385.482 7        43.806               
> 2023 01 31 10 40 12.0000000  0  4                                             
G17  22006078.336 7 115644306.430 7      1738.800 7        42.139               
G19  23267650.665 6 122273933.328 6      3133.964 6        36.809               
G03  23031018.020 6 121068499.418 6      3080.331 6        36.303               
G30  21295055.662 7 111907885.473 7       387.032 7        43.609               
> 2023 01 31 10 40 13.0000000  0  4                                             
G17  22005689.765 6 115642566.530 6      1740.257 6        41.647               
G19  23266988.814 6 122270801.352 6      3134.453 6        36.499               
G03  23030386.099 6 121065427.329 6      3081.792 6        36.452               
G30  21294918.231 7 111907499.613 7       387.177 7        43.812               
> 2023 01 31 10 40 14.0000000  0  4                                             
G17  22005300.015 6 115640826.505 6      1740.293 6        41.618               
G19  23266333.584 6 122267669.278 6      3130.295 6        36.472               
G03  23029733.362 6 121062355.480 6      3067.223 6        36.581               
G30  21294786.098 7 111907114.113 7       387.282 7        44.074               
> 2023 01 31 10 40 15.0000000  0  4                                             
G17  22004909.032 6 115639086.343 6      1738.747 6        41.794               
G19  23265684.322 6 122264537.140 6      3133.536 6        36.498               
G03  23029105.007 6 121059283.855 6      3071.528 6        36.162               
G30  21294663.195 7 111906728.959 7       383.287 7        43.885               
> 2023 01 31 10 40 16.0000000  0  4                                             
G17  22004521.712 6 115637346.088 6      1742.858 6        41.899               
G19  23265041.341 6 122261405.017 6      3130.364 6        36.405               
G03  23028463.142 6 121056212.549 6      3070.695 6        36.108               
G30  21294536.218 7 111906344.198 7       385.569 7        43.835               
> 2023 01 31 10 40 17.0000000  0  4                                             
G17  22004138.689 7 115635605.741 7      1737.490 7        42.005               
G19  23264392.382 6 122258272.845 6      3130.151 6        37.024               
G03  23027823.717 6 121053141.437 6      3067.432 6        36.382               
G30  21294405.765 7 111905959.830 7       383.155 7        43.514               
> 2023 01 31 10 40 18.0000000  0  4                                             
G17  22003757.257 7 115633865.240 7      1740.289 7        42.029               
G19  23263730.576 6 122255140.615 6      3136.674 6        37.032               
G03  23027185.900 6 121050070.577 6      3067.082 6        36.620               
G30  21294283.228 7 111905575.814 7       383.506 7        43.244               
> 2023 01 31 10 40 19.0000000  0  4                                             
G17  22003371.241 6 115632124.237 6      1742.686 6        41.576               
G19  23263077.732 6 122252007.943 6      3134.582 6        36.238               
G03  23026554.025 6 121046999.625 6      3071.204 6        36.411               
G30  21294151.158 7 111905191.784 7       386.001 7        43.449               
> 2023 01 31 10 40 20.0000000  0  4                                             
G17  22002981.357 6 115630382.524 6      1744.596 6        41.471               
G19  23262432.329 6 122248874.656 6      3137.839 6        37.048               
G03  23025908.837 6 121043928.271 6      3067.156 6        36.109               
G30  21294022.350 7 111904807.526 7       384.260 7        43.451               
> 2023 01 31 10 40 21.0000000  0  4                                             
G17  22002595.681 6 115628641.281 6      1740.791 6        41.931               
G19  23261791.841 6 122245741.879 6      3138.171 6        36.695               
G03  23025268.635 6 121040857.802 6      3070.395 6        36.492               
G30  21293891.781 7 111904424.242 7       383.173 7        43.699               
> 2023 01 31 10 40 22.0000000  0  4                                             
G17  22002205.502 7 115626898.237 7      1740.746 7        42.057               
G19  23261147.716 6 122242607.418 6      3124.644 6        37.067               
G03  23024632.399 5 121037785.910 5      3069.433 5        35.841               
G30  21293766.206 7 111904039.637 7       382.762 7        43.505               
> 2023 01 31 10 40 23.0000000  0  4                                             
G17  22001815.645 6 115625156.559 6      1739.457 6        41.798               
G19  23260483.417 6 122239474.381 6      3129.725 6        37.495               
G03  23023996.726 6 121034715.724 6      3068.676 6        36.386               
G30  21293638.612 7 111903656.895 7       384.546 7        43.449               
> 2023 01 31 10 40 24.0000000  0  4                                             
G17  22001443.656 6 115623414.774 6      1745.842 6        41.667               
G19  23259827.428 6 122236341.328 6      3127.884 6        37.035               
G03  23023339.959 6 121031645.798 6      3069.273 6        36.896               
G30  21293512.814 7 111903274.525 7       380.761 7        43.273               
> 2023 01 31 10 40 25.0000000  0  4                                             
G17  22001055.666 6 115621671.815 6      1743.262 6        41.623               
G19  23259182.115 6 122233207.153 6      3127.758 6        37.011               
G03  23022702.813 6 121028575.089 6      3080.373 6        36.295               
G30  21293383.755 7 111902891.486 7       385.678 7        43.295               
> 2023 01 31 10 40 26.0000000  0  4                                             
G17  22000664.478 6 115619929.081 6      1743.263 6        41.689               
G19  23258528.359 6 122230073.282 6      3126.002 6        37.121               
G03  23022068.194 6 121025504.995 6      3067.724 6        36.110               
G30  21293259.977 7 111902509.157 7       381.030 7        43.395               
> 2023 01 31 10 40 27.0000000  0  4                                             
G17  22000277.980 6 115618186.120 6      1743.537 6        41.814               
G19  23257869.707 5 122226939.274 5      3131.038 5        35.981               
G03  23021427.911 6 121022435.017 6      3067.867 6        36.853               
G30  21293127.460 7 111902127.103 7       383.420 7        43.806               
> 2023 01 31 10 40 28.0000000  0  4                                             
G17  21999890.517 6 115616443.007 6      1741.787 6        41.834               
G19  23257218.693 6 122223805.145 6      3132.190 6        36.598               
G03  23020787.906 6 121019365.229 6      3066.375 6        36.399               
G30  21292999.920 7 111901745.352 7       381.926 7        43.062               
> 2023 01 31 10 40 29.0000000  0  4                                             
G17  21999507.708 6 115614699.837 6      1740.677 6        41.870               
G19  23256574.238 6 122220671.069 6      3132.426 6        36.526               
G03  23020155.074 6 121016295.804 6      3073.506 6        36.502               
G30  21292870.012 7 111901364.047 7       381.933 7        43.535               
> 2023 01 31 10 40 30.0000000  0  4                                             
G17  21999114.992 6 115612956.875 6      1745.365 6        41.958               
G19  23255931.025 6 122217537.301 6      3130.978 6        36.344               
G03  23019502.596 6 121013226.933 6      3068.095 6        36.517               
G30  21292746.948 7 111900983.445 7       381.654 7        43.609               
> 2023 01 31 10 40 31.0000000  0  4                                             
G17  21998730.388 6 115611213.410 6      1741.242 6        41.326               
G19  23255265.931 6 122214403.048 6      3122.774 6        36.748               
G03  23018873.749 6 121010157.954 6      3067.607 6        36.427               
G30  21292618.836 7 111900602.820 7       382.168 7        43.979               
> 2023 01 31 10 40 32.0000000  0  4                                             
G17  21998343.318 7 115609470.064 7      1742.111 7        42.154               
G19  23254623.164 6 122211269.012 6      3136.994 6        37.035               
G03  23018230.214 5 121007089.471 5      3068.389 5        35.860               
G30  21292496.701 7 111900222.826 7       379.275 7        43.582               
> 2023 01 31 10 40 33.0000000  0  4                                             
G17  21997953.952 6 115607726.758 6      1746.174 6        41.843               
G19  23253975.653 6 122208135.121 6      3135.613 6        36.943               
G03  23017584.177 6 121004021.393 6      3065.141 6        36.527               
G30  21292369.608 7 111899843.350 7       378.755 7        43.992               
> 2023 01 31 10 40 34.0000000  0  4                                             
G17  21997571.010 6 115605984.415 6      1746.690 6        41.780               
G19  23253326.731 6 122205002.239 6      3139.781 6        36.531               
G03  23016962.836 5 121000954.628 5      3067.418 5        35.901               
G30  21292235.590 7 111899465.332 7       379.906 7        43.850               
> 2023 01 31 10 40 35.0000000  0  4                                             
G17  21997180.527 6 115604240.468 6      1746.631 6        41.974               
G19  23252658.867 6 122201867.822 6      3130.394 6        36.547               
G03  23016316.129 5 120997886.604 5      3066.825 5        35.497               
G30  21292106.084 7 111899086.180 7       380.221 7        43.741               
> 2023 01 31 10 40 36.0000000  0  4                                             
G17  21996795.727 6 115602496.809 6      1742.743 6        41.946               
G19  23252011.874 6 122198733.787 6      3134.891 6        36.672               
G03  23015679.116 5 120994819.285 5      3069.216 5        35.524               
G30  21291980.170 7 111898707.818 7       379.154 7        43.918               
> 2023 01 31 10 40 37.0000000  0  4                                             
G17  21996413.723 7 115600752.368 7      1745.047 7        42.362               
G19  23251368.938 6 122195599.046 6      3138.135 6        36.906               
G03  23015037.824 6 120991751.576 6      3059.362 6        36.095               
G30  21291860.689 7 111898329.168 7       376.974 7        43.389               
> 2023 01 31 10 40 38.0000000  0  4                                             
G17  21996028.029 7 115599007.804 7      1744.925 7        42.222               
G19  23250710.482 5 122192464.224 5      3140.590 5        35.896               
G03  23014410.621 6 120988684.057 6      3064.578 6        36.010               
G30  21291737.295 7 111897950.864 7       378.948 7        43.462               
> 2023 01 31 10 40 39.0000000  0  4                                             
G17  21995637.805 6 115597263.665 6      1742.411 6        41.677               
G19  23250054.028 6 122189329.909 6      3143.158 6        36.549               
G03  23013767.577 6 120985617.367 6      3067.501 6        36.394               
G30  21291605.913 7 111897573.482 7       376.739 7        43.401               
> 2023 01 31 10 40 40.0000000  0  4                                             
G17  21995249.431 7 115595519.468 7      1746.648 7        42.080               
G19  23249394.813 6 122186195.649 6      3137.728 6        36.615               
G03  23013138.865 5 120982551.007 5      3065.806 5        35.979               
G30  21291473.592 7 111897196.547 7       377.262 7        43.499               
> 2023 01 31 10 40 41.0000000  0  4                                             
G17  21994863.960 7 115593775.064 7      1745.308 7        42.239               
G19  23248752.341 6 122183061.200 6      3134.430 6        36.695               
G03  23012491.417 6 120979484.772 6      3067.101 6        36.158               
G30  21291341.701 7 111896819.874 7       377.501 7        43.455               
> 2023 01 31 10 40 42.0000000  0  4                                             
G17  21994472.361 6 115592030.478 6      1745.750 6        41.872               
G19  23248098.943 6 122179926.712 6      3133.366 6        36.716               
G03  23011856.360 6 120976418.777 6      3066.731 6        36.311               
G30  21291222.783 7 111896443.524 7       375.478 7        43.554               
> 2023 01 31 10 40 43.0000000  0  4                                             
G17  21994091.929 6 115590285.649 6      1744.781 6        41.911               
G19  23247448.305 6 122176792.016 6      3131.894 6        36.460               
G03  23011214.344 5 120973352.877 5      3067.220 5        35.827               
G30  21291104.356 7 111896067.426 7       378.128 7        43.772               
> 2023 01 31 10 40 44.0000000  0  4                                             
G17  21993698.641 6 115588540.834 6      1745.180 6        41.979               
G19  23246807.423 6 122173657.406 6      3136.701 6        36.110               
G03  23010569.782 6 120970287.409 6      3067.575 6        36.100               
G30  21290973.394 7 111895691.820 7       376.030 7        43.714               
> 2023 01 31 10 40 45.0000000  0  4                                             
G17  21993319.157 7 115586795.873 7      1745.935 7        42.036               
G19  23246149.888 6 122170522.741 6      3136.747 6        36.724               
G03  23009931.384 6 120967222.130 6      3064.644 6        36.397               
G30  21290849.946 7 111895316.546 7       374.452 7        43.465               
> 2023 01 31 10 40 46.0000000  0  4                                             
G17  21992930.845 6 115585050.359 6      1744.490 6        41.908               
G19  23245488.243 6 122167387.585 6      3133.304 6        36.677               
G03  23009298.973 6 120964156.655 6      3067.332 6        36.086               
G30  21290720.047 7 111894941.244 7       372.293 7        43.516               
> 2023 01 31 10 40 47.0000000  0  4                                             
G17  21992545.339 6 115583305.025 6      1746.194 6        41.959               
G19  23244844.288 6 122164252.678 6      3130.267 6        36.326               
G03  23008659.628 6 120961091.759 6      3068.840 6        36.093               
G30  21290586.467 7 111894566.584 7       373.679 7        43.551               
> 2023 01 31 10 40 48.0000000  0  4                                             
G17  21992158.412 6 115581559.294 6      1747.589 6        41.857               
G19  23244202.790 5 122161117.474 5      3129.255 5        35.920               
G03  23008019.658 6 120958026.860 6      3059.396 6        36.010               
G30  21290465.413 7 111894192.025 7       373.133 7        43.387               
> 2023 01 31 10 40 49.0000000  0  4                                             
G17  21991761.192 7 115579813.133 7      1747.109 7        42.193               
G19  23243541.180 6 122157981.878 6      3127.031 6        36.252               
G03  23007376.614 6 120954961.869 6      3065.798 6        36.116               
G30  21290340.232 7 111893817.510 7       375.225 7        43.300               
> 2023 01 31 10 40 50.0000000  0  4                                             
G17  21991381.181 7 115578066.955 7      1747.719 7        42.001               
G19  23242901.818 6 122154846.384 6      3129.289 6        36.313               
G03  23006758.962 6 120951897.253 6      3065.108 6        36.024               
G30  21290220.188 7 111893443.490 7       373.831 7        43.634               
> 2023 01 31 10 40 51.0000000  0  4                                             
G17  21990995.094 6 115576320.767 6      1746.675 6        41.804               
G19  23242241.477 6 122151710.931 6      3134.081 6        36.536               
G03  23006111.032 5 120948832.994 5      3061.484 5        35.618               
G30  21290091.647 7 111893069.939 7       370.775 7        43.123               
> 2023 01 31 10 40 52.0000000  0  4                                             
G17  21990603.521 6 115574574.390 6      1747.495 6        41.798               
G19  23241599.666 6 122148575.344 6      3137.834 6        36.944               
G03  23005468.077 6 120945768.932 6      3063.357 6        36.164               
G30  21289964.643 7 111892696.670 7       374.706 7        43.552               
> 2023 01 31 10 40 53.0000000  0  4                                             
G17  21990217.353 6 115572827.792 6      1748.350 6        41.585               
G19  23240946.795 6 122145439.655 6      3140.474 6        36.443               
G03  23004829.340 6 120942705.012 6      3061.385 6        36.193               
G30  21289834.163 7 111892323.698 7       376.238 7        43.293               
> 2023 01 31 10 40 54.0000000  0  4                                             
G17  21989825.450 7 115571081.108 7      1745.999 7        42.074               
G19  23240277.082 6 122142303.922 6      3126.000 6        36.764               
G03  23004194.248 6 120939641.398 6      3062.210 6        36.430               
G30  21289706.936 7 111891951.107 7       370.306 7        43.308               
> 2023 01 31 10 40 55.0000000  0  4                                             
G17  21989446.010 6 115569334.357 6      1747.520 6        41.822               
G19  23239628.847 6 122139168.204 6      3134.061 6        36.413               
G03  23003563.454 5 120936578.051 5      3067.173 5        35.672               
G30  21289585.775 7 111891578.928 7       371.169 7        43.459               
> 2023 01 31 10 40 56.0000000  0  4                                             
G17  21989051.694 6 115567587.446 6      1747.566 6        41.863               
G19  23238995.060 6 122136032.400 6      3132.672 6        36.735               
G03  23002920.678 6 120933514.976 6      3070.364 6        36.191               
G30  21289466.696 7 111891207.113 7       370.193 7        43.078               
> 2023 01 31 10 40 57.0000000  0  4                                             
G17  21988678.008 7 115565840.407 7      1746.353 7        42.070               
G19  23238335.210 6 122132896.539 6      3134.688 6        36.708               
G03  23002277.349 6 120930452.114 6      3061.321 6        36.346               
G30  21289338.780 7 111890835.631 7       372.021 7        43.135               
> 2023 01 31 10 40 58.0000000  0  4                                             
G17  21988280.324 6 115564093.020 6      1746.820 6        41.564               
G19  23237677.282 6 122129760.437 6      3138.909 6        36.355               
G03  23001634.082 6 120927389.287 6      3068.746 6        36.261               
G30  21289213.617 7 111890464.311 7       371.933 7        43.242               
> 2023 01 31 10 40 59.0000000  0  4                                             
G17  21987899.714 7 115562345.454 7      1746.758 7        42.214               
G19  23237037.964 6 122126624.207 6      3133.507 6        36.566               
G03  23001001.769 6 120924326.648 6      3061.244 6        36.353               
G30  21289084.683 7 111890093.288 7       369.483 7        43.850               
> 2023 01 31 10 41 00.0000000  0  4                                             
G17  21987511.402 6 115560598.030 6      1747.031 6        41.884               
G19  23236374.728 6 122123488.211 6      3130.790 6        37.056               
G03  23000360.932 6 120921264.561 6      3058.564 6        36.197               
G30  21288962.628 7 111889722.899 7       371.584 7        43.553               
> 2023 01 31 10 41 01.0000000  0  4                                             
G17  21987120.473 6 115558850.264 6      1747.036 6        41.609               
G19  23235722.312 6 122120351.934 6      3139.751 6        37.091               
G03  22999732.657 5 120918202.470 5      3064.573 5        35.709               
G30  21288830.353 7 111889352.660 7       368.826 7        43.828               
> 2023 01 31 10 41 02.0000000  0  4                                             
G17  21986741.087 6 115557102.113 6      1744.845 6        41.860               
G19  23235087.319 6 122117215.331 6      3138.394 6        37.303               
G03  22999105.195 6 120915140.362 6      3055.314 6        36.109               
G30  21288710.988 7 111888982.526 7       370.637 7        43.225               
> 2023 01 31 10 41 03.0000000  0  4                                             
G17  21986344.698 6 115555354.033 6      1749.462 6        41.548               
G19  23234423.082 6 122114078.885 6      3134.412 6        37.289               
G03  22998467.244 6 120912078.707 6      3072.890 6        36.149               
G30  21288583.492 7 111888612.913 7       370.836 7        43.789               
> 2023 01 31 10 41 04.0000000  0  4                                             
G17  21985965.946 6 115553605.966 6      1744.642 6        41.817               
G19  23233764.636 6 122110942.477 6      3136.736 6        36.930               
G03  22997810.486 6 120909017.410 6      3059.226 6        36.379               
G30  21288457.382 7 111888243.806 7       369.176 7        43.740               
> 2023 01 31 10 41 05.0000000  0  4                                             
G17  21985574.266 6 115551857.709 6      1749.995 6        41.982               
G19  23233115.293 6 122107806.018 6      3137.294 6        36.573               
G03  22997183.007 5 120905956.338 5      3061.659 5        35.967               
G30  21288330.932 7 111887875.023 7       368.473 7        43.298               
> 2023 01 31 10 41 06.0000000  0  4                                             
G17  21985179.915 6 115550109.083 6      1744.499 6        41.915               
G19  23232473.143 6 122104669.234 6      3132.164 6        36.670               
G03  22996550.961 5 120902895.247 5      3056.804 5        35.687               
G30  21288199.559 7 111887506.335 7       369.978 7        43.905               
> 2023 01 31 10 41 07.0000000  0  4                                             
G17  21984799.680 7 115548360.273 7      1749.121 7        42.340               
G19  23231816.010 6 122101532.369 6      3134.739 6        36.763               
G03  22995912.305 5 120899834.357 5      3058.236 5        35.848               
G30  21288082.159 7 111887137.946 7       366.358 7        43.782               
> 2023 01 31 10 41 08.0000000  0  4                                             
G17  21984404.533 7 115546611.508 7      1749.355 7        42.181               
G19  23231168.356 6 122098395.582 6      3131.892 6        37.071               
G03  22995266.348 6 120896773.864 6      3063.721 6        36.595               
G30  21287962.678 7 111886770.114 7       371.007 7        43.818               
> 2023 01 31 10 41 09.0000000  0  4                                             
G17  21984026.032 6 115544862.478 6      1754.086 6        41.794               
G19  23230515.467 6 122095258.627 6      3138.524 6        36.501               
G03  22994638.529 5 120893713.524 5      3065.742 5        35.705               
G30  21287834.709 7 111886402.485 7       368.606 7        43.733               
> 2023 01 31 10 41 10.0000000  0  4                                             
G17  21983632.207 6 115543112.961 6      1746.886 6        41.756               
G19  23229866.759 6 122092121.270 6      3132.000 6        36.801               
G03  22993992.073 6 120890653.080 6      3056.922 6        36.054               
G30  21287710.510 7 111886034.884 7       364.787 7        43.471               
> 2023 01 31 10 41 11.0000000  0  4                                             
G17  21983247.657 6 115541363.415 6      1750.510 6        40.945               
G19  23229221.705 6 122088983.943 6      3136.239 6        36.576               
G03  22993350.959 6 120887592.941 6      3060.561 6        36.460               
G30  21287579.593 7 111885667.720 7       369.462 7        43.241               
> 2023 01 31 10 41 12.0000000  0  4                                             
G17  21982862.195 6 115539613.717 6      1749.400 6        41.578               
G19  23228554.055 6 122085846.566 6      3126.457 6        36.672               
G03  22992721.406 6 120884533.068 6      3057.197 6        36.489               
G30  21287454.581 7 111885300.909 7       366.704 7        43.718               
> 2023 01 31 10 41 13.0000000  0  4                                             
G17  21982467.737 6 115537863.750 6      1750.090 6        41.660               
G19  23227909.162 6 122082709.003 6      3139.765 6        36.494               
G03  22992084.438 6 120881473.298 6      3055.465 6        36.507               
G30  21287332.545 7 111884934.318 7       366.173 7        43.163               
> 2023 01 31 10 41 14.0000000  0  4                                             
G17  21982083.329 6 115536113.824 6      1749.198 6        41.495               
G19  23227259.543 6 122079571.465 6      3134.510 6        36.404               
G03  22991443.923 6 120878413.930 6      3061.730 6        36.536               
G30  21287215.092 7 111884568.241 7       367.498 7        44.024               
> 2023 01 31 10 41 15.0000000  0  4                                             
G17  21981688.728 6 115534363.928 6      1748.326 6        41.291               
G19  23226600.087 6 122076434.144 6      3135.308 6        36.594               
G03  22990800.638 6 120875355.007 6      3060.771 6        36.426               
G30  21287079.573 7 111884202.704 7       366.339 7        44.019               
> 2023 01 31 10 41 16.0000000  0  4                                             
G17  21981310.834 6 115532613.707 6      1750.465 6        41.508               
G19  23225943.927 6 122073296.538 6      3138.005 6        37.383               
G03  22990171.774 6 120872296.106 6      3058.237 6        36.426               
G30  21286966.757 7 111883837.319 7       365.858 7        43.581               
> 2023 01 31 10 41 17.0000000  0  4                                             
G17  21980914.856 6 115530863.118 6      1750.714 6        41.623               
G19  23225302.787 6 122070158.628 6      3136.062 6        37.215               
G03  22989546.099 6 120869237.224 6      3058.310 6        36.459               
G30  21286835.723 7 111883472.062 7       364.280 7        43.092               
> 2023 01 31 10 41 18.0000000  0  4                                             
G17  21980528.144 6 115529112.362 6      1751.839 6        41.329               
G19  23224658.385 6 122067020.634 6      3134.429 6        37.754               
G03  22988901.385 6 120866178.580 6      3052.623 6        36.215               
G30  21286710.595 7 111883107.127 7       364.130 7        43.682               
> 2023 01 31 10 41 19.0000000  0  4                                             
G17  21980145.246 6 115527361.665 6      1749.309 6        41.654               
G19  23224001.645 6 122063882.808 6      3135.503 6        37.591               
G03  22988264.014 6 120863120.337 6      3058.642 6        36.576               
G30  21286584.261 7 111882742.736 7       366.400 7        43.624               
> 2023 01 31 10 41 20.0000000  0  4                                             
G17  21979758.212 6 115525610.525 6      1752.632 6        41.607               
G19  23223338.561 6 122060744.570 6      3138.400 6        37.122               
G03  22987624.062 5 120860062.038 5      3055.288 5        35.992               
G30  21286463.065 7 111882378.411 7       363.858 7        43.206               
> 2023 01 31 10 41 21.0000000  0  4                                             
G17  21979373.474 6 115523859.391 6      1748.155 6        41.219               
G19  23222687.101 6 122057606.412 6      3134.322 6        36.865               
G03  22986994.322 6 120857004.109 6      3063.855 6        36.458               
G30  21286337.669 7 111882014.537 7       362.819 7        42.908               
> 2023 01 31 10 41 22.0000000  0  4                                             
G17  21978976.978 6 115522108.114 6      1754.524 6        41.852               
G19  23222038.349 6 122054468.253 6      3136.914 6        36.545               
G03  22986349.670 6 120853946.451 6      3059.322 6        36.620               
G30  21286217.813 7 111881651.043 7       364.925 7        43.738               
> 2023 01 31 10 41 23.0000000  0  4                                             
G17  21978590.748 6 115520356.792 6      1752.618 6        41.021               
G19  23221396.395 6 122051330.031 6      3141.898 6        36.261               
G03  22985713.873 5 120850889.116 5      3051.822 5        35.883               
G30  21286089.745 7 111881287.974 7       364.574 7        43.719               
> 2023 01 31 10 41 24.0000000  0  4                                             
G17  21978203.545 6 115518604.997 6      1750.017 6        41.134               
G19  23220735.875 6 122048191.480 6      3134.384 6        36.352               
G03  22985069.248 6 120847831.681 6      3058.757 6        36.163               
G30  21285964.564 7 111880924.921 7       361.756 7        43.003               
> 2023 01 31 10 41 25.0000000  0  4                                             
G17  21977811.319 6 115516852.913 6      1753.173 6        40.990               
G19  23220074.793 6 122045052.687 6      3138.909 6        36.526               
G03  22984445.735 5 120844774.346 5      3059.179 5        35.974               
G30  21285845.029 7 111880562.090 7       363.811 7        43.470               
> 2023 01 31 10 41 26.0000000  0  4                                             
G17  21977429.548 6 115515100.891 6      1749.772 6        41.516               
G19  23219432.938 6 122041914.021 6      3132.772 6        37.089               
G03  22983809.088 5 120841717.446 5      3052.437 5        35.991               
G30  21285724.458 7 111880199.798 7       359.530 7        43.498               
> 2023 01 31 10 41 27.0000000  0  4                                             
G17  21977040.182 6 115513348.762 6      1750.325 6        41.610               
G19  23218782.211 6 122038775.375 6      3137.668 6        36.734               
G03  22983173.273 6 120838660.827 6      3054.130 6        36.345               
G30  21285593.665 7 111879837.889 7       362.551 7        43.339               
> 2023 01 31 10 41 28.0000000  0  4                                             
G17  21976646.608 7 115511596.029 7      1752.358 7        42.128               
G19  23218111.264 6 122035636.157 6      3138.791 6        37.068               
G03  22982522.626 6 120835603.964 6      3056.681 6        36.278               
G30  21285472.817 7 111879475.846 7       361.461 7        43.336               
> 2023 01 31 10 41 29.0000000  0  4                                             
G17  21976254.776 6 115509843.271 6      1753.246 6        41.751               
G19  23217477.397 6 122032497.000 6      3137.799 6        36.596               
G03  22981899.712 6 120832547.451 6      3061.852 6        36.325               
G30  21285348.976 7 111879114.267 7       362.097 7        43.368               
> 2023 01 31 10 41 30.0000000  0  4                                             
G17  21975867.742 6 115508090.599 6      1749.989 6        41.602               
G19  23216828.608 6 122029358.008 6      3154.725 6        37.134               
G03  22981257.678 5 120829491.452 5      3046.861 5        35.640               
G30  21285224.885 7 111878753.299 7       361.795 7        43.529               
> 2023 01 31 10 41 31.0000000  0  4                                             
G17  21975486.399 6 115506339.133 6      1749.888 6        41.140               
G19  23216172.073 6 122026220.311 6      3139.118 6        37.449               
G03  22980624.140 6 120826436.987 6      3055.487 6        36.623               
G30  21285100.873 7 111878393.980 7       357.795 7        43.069               
> 2023 01 31 10 41 32.0000000  0  4                                             
G17  21975091.243 6 115504586.933 6      1751.251 6        41.502               
G19  23215516.995 6 122023081.948 6      3142.525 6        37.279               
G03  22979976.746 6 120823382.181 6      3060.153 6        36.844               
G30  21284987.968 7 111878034.448 7       359.324 7        43.354               
> 2023 01 31 10 41 33.0000000  0  4                                             
G17  21974704.048 6 115502834.340 6      1752.505 6        41.396               
G19  23214856.645 6 122019943.261 6      3137.219 6        36.857               
G03  22979356.941 6 120820327.382 6      3051.777 6        36.370               
G30  21284861.420 7 111877674.988 7       359.462 7        42.957               
> 2023 01 31 10 41 34.0000000  0  4                                             
G17  21974320.213 6 115501081.908 6      1751.275 6        41.650               
G19  23214214.754 6 122016804.819 6      3134.436 6        36.874               
G03  22978715.032 6 120817273.099 6      3059.153 6        36.145               
G30  21284730.154 7 111877316.187 7       359.969 7        43.823               
> 2023 01 31 10 41 35.0000000  0  4                                             
G17  21973927.353 6 115499329.161 6      1754.525 6        41.612               
G19  23213571.755 6 122013666.110 6      3145.957 6        36.773               
G03  22978072.810 6 120814218.937 6      3049.464 6        36.989               
G30  21284605.705 7 111876957.561 7       360.022 7        43.787               
> 2023 01 31 10 41 36.0000000  0  4                                             
G17  21973545.457 6 115497576.345 6      1753.678 6        41.535               
G19  23212902.739 6 122010527.420 6      3137.885 6        36.811               
G03  22977448.413 6 120811164.985 6      3052.442 6        36.865               
G30  21284492.076 7 111876599.333 7       358.464 7        43.416               
> 2023 01 31 10 41 37.0000000  0  4                                             
G17  21973152.937 6 115495823.680 6      1756.118 6        41.733               
G19  23212256.363 6 122007389.002 6      3143.671 6        36.559               
G03  22976811.892 6 120808111.647 6      3050.542 6        36.587               
G30  21284365.349 7 111876241.766 7       358.159 7        42.932               
> 2023 01 31 10 41 38.0000000  0  4                                             
G17  21972774.569 6 115494070.527 6      1751.303 6        41.554               
G19  23211595.870 6 122004250.086 6      3136.310 6        36.745               
G03  22976177.997 6 120805058.166 6      3054.171 6        36.550               
G30  21284239.989 7 111875884.208 7       358.446 7        43.288               
> 2023 01 31 10 41 39.0000000  0  4                                             
G17  21972380.441 6 115492317.130 6      1753.626 6        41.808               
G19  23210935.252 6 122001111.054 6      3135.186 6        36.172               
G03  22975526.644 6 120802004.864 6      3056.782 6        36.647               
G30  21284119.650 7 111875526.874 7       355.159 7        43.287               
> 2023 01 31 10 41 40.0000000  0  4                                             
G17  21971981.327 6 115490563.459 6      1755.068 6        41.707               
G19  23210298.418 6 121997971.787 6      3140.588 6        36.097               
G03  22974907.911 6 120798951.642 6      3051.585 6        36.362               
G30  21283994.942 7 111875169.763 7       357.547 7        43.598               
> 2023 01 31 10 41 41.0000000  0  4                                             
G17  21971599.538 7 115488809.634 7      1754.301 7        42.051               
G19  23209641.339 6 121994832.476 6      3141.178 6        36.609               
G03  22974259.900 6 120795898.649 6      3049.946 6        36.294               
G30  21283870.180 7 111874812.968 7       354.347 7        43.148               
> 2023 01 31 10 41 42.0000000  0  4                                             
G17  21971207.894 6 115487055.407 6      1751.076 6        41.589               
G19  23208994.185 6 121991692.846 6      3137.789 6        36.850               
G03  22973623.039 6 120792845.645 6      3058.353 6        36.345               
G30  21283747.965 7 111874456.286 7       355.800 7        43.492               
> 2023 01 31 10 41 43.0000000  0  4                                             
G17  21970821.315 6 115485301.017 6      1752.588 6        41.598               
G19  23208337.561 6 121988553.098 6      3140.910 6        36.594               
G03  22972984.356 6 120789792.873 6      3051.564 6        36.435               
G30  21283625.401 7 111874099.928 7       357.033 7        44.064               
> 2023 01 31 10 41 44.0000000  0  4                                             
G17  21970431.922 6 115483546.806 6      1753.762 6        41.384               
G19  23207692.427 6 121985413.630 6      3137.174 6        36.130               
G03  22972356.912 6 120786740.624 6      3047.842 6        36.279               
G30  21283510.566 7 111873744.221 7       353.534 7        43.946               
> 2023 01 31 10 41 45.0000000  0  4                                             
G17  21970040.001 7 115481791.590 7      1755.600 7        42.004               
G19  23207045.550 6 121982273.243 6      3143.342 6        36.362               
G03  22971714.592 6 120783687.792 6      3056.060 6        36.779               
G30  21283384.688 7 111873388.012 7       354.158 7        43.805               
> 2023 01 31 10 41 46.0000000  0  4                                             
G17  21969657.550 6 115480036.615 6      1750.949 6        41.830               
G19  23206388.381 6 121979133.164 6      3136.995 6        36.843               
G03  22971081.385 6 120780635.554 6      3054.811 6        36.844               
G30  21283252.135 7 111873032.525 7       353.537 7        44.041               
> 2023 01 31 10 41 47.0000000  0  4                                             
G17  21969264.637 6 115478281.771 6      1757.003 6        41.523               
G19  23205742.523 6 121975993.298 6      3146.408 6        36.808               
G03  22970455.478 6 120777583.833 6      3049.115 6        36.207               
G30  21283134.986 7 111872677.658 7       356.977 7        43.691               
> 2023 01 31 10 41 48.0000000  0  4                                             
G17  21968876.710 6 115476525.550 6      1758.282 6        41.782               
G19  23205086.837 6 121972852.137 6      3140.502 6        37.086               
G03  22969808.950 6 120774531.116 6      3053.903 6        36.931               
G30  21283012.262 7 111872321.890 7       355.427 7        43.895               
> 2023 01 31 10 41 49.0000000  0  4                                             
G17  21968492.008 6 115474769.589 6      1754.136 6        41.784               
G19  23204431.500 6 121969711.271 6      3139.030 6        36.540               
G03  22969176.994 6 120771479.038 6      3054.595 6        36.232               
G30  21282890.895 7 111871966.882 7       354.635 7        43.766               
> 2023 01 31 10 41 50.0000000  0  4                                             
G17  21968095.807 6 115473013.897 6      1754.700 6        41.830               
G19  23203775.778 6 121966570.801 6      3137.502 6        36.193               
G03  22968541.161 6 120768427.630 6      3057.565 6        37.018               
G30  21282771.995 7 111871612.622 7       352.023 7        43.910               
> 2023 01 31 10 41 51.0000000  0  4                                             
G17  21967711.462 6 115471258.264 6      1754.697 6        41.967               
G19  23203129.134 6 121963430.429 6      3142.754 6        36.578               
G03  22967912.618 6 120765376.654 6      3050.330 6        36.214               
G30  21282644.267 7 111871258.909 7       353.919 7        43.917               
> 2023 01 31 10 41 52.0000000  0  4                                             
G17  21967321.506 6 115469502.071 6      1758.211 6        41.712               
G19  23202471.893 6 121960289.564 6      3147.441 6        36.627               
G03  22967284.173 6 120762325.521 6      3058.102 6        36.591               
G30  21282525.304 7 111870905.132 7       352.491 7        43.572               
> 2023 01 31 10 41 53.0000000  0  4                                             
G17  21966940.842 6 115467745.774 6      1759.223 6        41.904               
G19  23201825.026 6 121957148.728 6      3130.354 6        37.134               
G03  22966641.371 6 120759274.633 6      3053.572 6        36.466               
G30  21282405.885 7 111870551.716 7       352.541 7        43.378               
> 2023 01 31 10 41 54.0000000  0  4                                             
G17  21966541.470 6 115465988.779 6      1756.647 6        41.685               
G19  23201168.393 6 121954007.200 6      3132.262 6        36.730               
G03  22966003.143 6 120756223.444 6      3048.141 6        37.098               
G30  21282283.572 7 111870198.106 7       355.677 7        44.005               
> 2023 01 31 10 41 55.0000000  0  4                                             
G17  21966155.463 7 115464232.424 7      1754.648 7        42.146               
G19  23200512.644 6 121950866.459 6      3135.011 6        36.907               
G03  22965367.193 6 120753173.282 6      3043.713 6        36.801               
G30  21282164.475 7 111869845.631 7       352.867 7        43.644               
> 2023 01 31 10 41 56.0000000  0  4                                             
G17  21965767.830 6 115462476.198 6      1756.129 6        41.933               
G19  23199864.812 6 121947725.866 6      3141.136 6        36.913               
G03  22964733.978 6 120750123.620 6      3045.153 6        36.859               
G30  21282030.940 7 111869493.738 7       351.449 7        43.059               
> 2023 01 31 10 41 57.0000000  0  4                                             
G17  21965375.927 6 115460719.839 6      1757.230 6        41.747               
G19  23199207.884 6 121944585.253 6      3138.450 6        37.570               
G03  22964097.564 6 120747074.234 6      3054.561 6        36.488               
G30  21281909.520 7 111869142.236 7       351.005 7        43.291               
> 2023 01 31 10 41 58.0000000  0  4                                             
G17  21964989.000 6 115458963.340 6      1757.040 6        41.541               
G19  23198560.731 6 121941444.556 6      3141.140 6        37.257               
G03  22963456.387 6 120744025.062 6      3044.254 6        37.109               
G30  21281795.792 7 111868791.050 7       353.463 7        43.293               
> 2023 01 31 10 41 59.0000000  0  4                                             
G17  21964595.077 6 115457206.608 6      1755.919 6        41.672               
G19  23197900.756 6 121938303.692 6      3153.801 6        37.094               
G03  22962830.114 6 120740976.058 6      3052.072 6        36.210               
G30  21281672.809 7 111868440.147 7       350.778 7        43.247               
> 2023 01 31 10 42 00.0000000  0  4                                             
G17  21964200.503 6 115455449.768 6      1758.048 6        41.401               
G19  23197250.288 6 121935162.824 6      3141.653 6        36.998               
G03  22962184.694 6 120737927.315 6      3050.129 6        36.725               
G30  21281551.898 7 111868089.594 7       351.338 7        43.147               
> 2023 01 31 10 42 01.0000000  0  4                                             
G17  21963819.794 6 115453692.686 6      1757.926 6        41.029               
G19  23196601.580 6 121932021.762 6      3144.402 6        37.164               
G03  22961555.641 6 120734878.726 6      3048.425 6        36.647               
G30  21281431.371 7 111867739.304 7       347.702 7        43.195               
> 2023 01 31 10 42 02.0000000  0  4                                             
G17  21963433.510 6 115451935.569 6      1756.276 6        41.357               
G19  23195945.465 6 121928880.739 6      3144.183 6        36.953               
G03  22960921.345 6 120731830.465 6      3048.738 6        37.106               
G30  21281302.277 7 111867389.464 7       350.691 7        43.558               
> 2023 01 31 10 42 03.0000000  0  4                                             
G17  21963050.944 6 115450178.407 6      1755.924 6        41.530               
G19  23195288.841 6 121925739.764 6      3135.140 6        37.044               
G03  22960282.947 6 120728782.574 6      3050.061 6        36.447               
G30  21281184.234 7 111867040.064 7       348.764 7        43.472               
> 2023 01 31 10 42 04.0000000  0  4                                             
G17  21962650.124 6 115448420.935 6      1758.353 6        41.578               
G19  23194642.840 6 121922598.538 6      3135.402 6        36.996               
G03  22959649.571 5 120725734.759 5      3048.696 5        35.644               
G30  21281065.816 7 111866690.828 7       348.682 7        43.556               
> 2023 01 31 10 42 05.0000000  0  4                                             
G17  21962261.865 6 115446663.354 6      1756.118 6        41.740               
G19  23193995.848 6 121919457.291 6      3150.244 6        36.753               
G03  22959013.174 6 120722687.193 6      3051.181 6        36.228               
G30  21280948.148 7 111866341.993 7       349.166 7        44.221               
> 2023 01 31 10 42 06.0000000  0  4                                             
G17  21961873.312 7 115444905.856 7      1756.086 7        42.108               
G19  23193335.748 6 121916316.228 6      3145.565 6        37.338               
G03  22958378.458 6 120719640.095 6      3050.603 6        36.828               
G30  21280824.700 7 111865993.707 7       347.425 7        44.043               
> 2023 01 31 10 42 07.0000000  0  4                                             
G17  21961474.538 6 115443148.247 6      1757.851 6        41.395               
G19  23192685.387 6 121913175.094 6      3140.692 6        36.815               
G03  22957760.931 6 120716593.338 6      3048.034 6        36.239               
G30  21280700.314 7 111865645.827 7       349.346 7        43.740               
> 2023 01 31 10 42 08.0000000  0  4                                             
G17  21961099.226 6 115441390.516 6      1761.698 6        41.391               
G19  23192032.614 6 121910033.943 6      3138.709 6        36.643               
G03  22957110.579 6 120713546.785 6      3040.875 6        36.496               
G30  21280579.966 7 111865298.298 7       346.659 7        43.408               
> 2023 01 31 10 42 09.0000000  0  4                                             
G17  21960701.426 6 115439632.590 6      1756.868 6        41.878               
G19  23191375.489 6 121906892.663 6      3137.503 6        37.046               
G03  22956487.701 6 120710500.422 6      3045.860 6        36.990               
G30  21280462.093 7 111864951.059 7       347.142 7        43.554               
> 2023 01 31 10 42 10.0000000  0  4                                             
G17  21960314.321 6 115437874.509 6      1757.200 6        41.196               
G19  23190740.103 6 121903751.325 6      3141.220 6        36.397               
G03  22955844.702 6 120707454.323 6      3042.553 6        36.915               
G30  21280337.787 7 111864604.148 7       347.597 7        43.345               
> 2023 01 31 10 42 11.0000000  0  4                                             
G17  21959924.213 6 115436116.158 6      1756.150 6        41.775               
G19  23190080.620 6 121900609.750 6      3146.046 6        36.590               
G03  22955217.830 6 120704408.312 6      3045.701 6        36.473               
G30  21280219.557 7 111864257.465 7       348.329 7        43.715               
> 2023 01 31 10 42 12.0000000  0  4                                             
G17  21959532.051 6 115434357.439 6      1760.331 6        41.461               
G19  23189421.592 6 121897467.927 6      3137.906 6        37.228               
G03  22954564.386 6 120701362.317 6      3033.058 6        36.398               
G30  21280090.239 7 111863910.893 7       345.708 7        43.265               
> 2023 01 31 10 42 13.0000000  0  4                                             
G17  21959151.637 6 115432598.507 6      1759.827 6        41.272               
G19  23188765.263 6 121894325.953 6      3133.946 6        36.960               
G03  22953925.703 6 120698316.522 6      3045.525 6        36.296               
G30  21279976.047 7 111863564.605 7       345.747 7        43.568               
> 2023 01 31 10 42 14.0000000  0  4                                             
G17  21958759.090 6 115430839.722 6      1757.866 6        41.417               
G19  23188110.864 6 121891184.192 6      3147.987 6        36.785               
G03  22953299.411 6 120695271.239 6      3050.005 6        36.201               
G30  21279854.314 7 111863218.943 7       344.796 7        43.834               
> 2023 01 31 10 42 15.0000000  0  4                                             
G17  21958366.794 6 115429080.916 6      1759.629 6        41.774               
G19  23187459.457 6 121888042.462 6      3145.087 6        36.715               
G03  22952665.945 5 120692226.296 5      3044.016 5        35.358               
G30  21279738.264 7 111862873.727 7       344.283 7        43.775               
> 2023 01 31 10 42 16.0000000  0  4                                             
G17  21957978.008 6 115427321.886 6      1759.778 6        41.721               
G19  23186810.231 5 121884900.611 5      3148.953 5        35.714               
G03  22952036.339 6 120689181.517 6      3044.020 6        36.747               
G30  21279614.672 7 111862528.770 7       346.034 7        43.457               
> 2023 01 31 10 42 17.0000000  0  4                                             
G17  21957594.369 7 115425562.644 7      1762.233 7        42.331               
G19  23186150.900 6 121881758.624 6      3141.035 6        37.036               
G03  22951411.075 6 120686136.933 6      3045.664 6        36.461               
G30  21279491.474 7 111862184.100 7       344.017 7        43.352               
> 2023 01 31 10 42 18.0000000  0  4                                             
G17  21957202.180 6 115423803.150 6      1759.757 6        41.947               
G19  23185508.285 6 121878616.449 6      3141.283 6        36.874               
G03  22950766.593 6 120683092.501 6      3044.341 6        36.955               
G30  21279375.773 7 111861839.676 7       341.928 7        43.596               
> 2023 01 31 10 42 19.0000000  0  4                                             
G17  21956807.096 6 115422043.166 6      1760.783 6        41.728               
G19  23184853.064 6 121875473.877 6      3138.876 6        36.706               
G03  22950138.417 5 120680047.914 5      3049.578 5        35.868               
G30  21279255.389 7 111861495.226 7       342.839 7        43.525               
> 2023 01 31 10 42 20.0000000  0  4                                             
G17  21956424.663 6 115420282.925 6      1760.481 6        41.574               
G19  23184214.541 6 121872331.090 6      3141.383 6        36.571               
G03  22949504.254 6 120677003.506 6      3052.703 6        36.423               
G30  21279137.704 7 111861151.002 7       345.397 7        44.055               
> 2023 01 31 10 42 21.0000000  0  4                                             
G17  21956032.447 6 115418522.793 6      1758.461 6        40.979               
G19  23183555.120 6 121869188.544 6      3135.696 6        37.355               
G03  22948853.509 6 120673959.601 6      3044.058 6        36.837               
G30  21279017.767 7 111860807.407 7       342.596 7        43.417               
> 2023 01 31 10 42 22.0000000  0  4                                             
G17  21955634.316 6 115416762.742 6      1763.079 6        41.383               
G19  23182894.208 6 121866046.118 6      3146.397 6        37.853               
G03  22948230.005 6 120670916.148 6      3040.227 6        36.373               
G30  21278887.618 7 111860464.369 7       340.625 7        43.539               
> 2023 01 31 10 42 23.0000000  0  4                                             
G17  21955249.185 6 115415002.232 6      1758.645 6        41.874               
G19  23182243.391 6 121862903.312 6      3143.262 6        37.655               
G03  22947602.007 6 120667872.592 6      3046.985 6        36.199               
G30  21278771.639 7 111860121.331 7       341.640 7        43.268               
> 2023 01 31 10 42 24.0000000  0  4                                             
G17  21954856.067 6 115413241.659 6      1761.251 6        41.865               
G19  23181576.814 6 121859760.519 6      3140.964 6        37.415               
G03  22946971.919 6 120664829.353 6      3044.105 6        36.449               
G30  21278655.901 7 111859778.730 7       341.797 7        43.634               
> 2023 01 31 10 42 25.0000000  0  4                                             
G17  21954466.620 6 115411481.072 6      1759.723 6        41.779               
G19  23180933.699 6 121856617.793 6      3137.700 6        37.033               
G03  22946334.379 6 120661786.583 6      3041.679 6        37.045               
G30  21278534.553 7 111859436.627 7       342.900 7        43.165               
> 2023 01 31 10 42 26.0000000  0  4                                             
G17  21954078.246 6 115409720.326 6      1760.020 6        41.766               
G19  23180284.741 6 121853475.010 6      3146.131 6        37.218               
G03  22945697.786 6 120658743.952 6      3042.045 6        36.304               
G30  21278415.491 7 111859094.828 7       342.046 7        43.467               
> 2023 01 31 10 42 27.0000000  0  4                                             
G17  21953687.040 7 115407959.376 7      1760.539 7        42.038               
G19  23179631.163 6 121850332.043 6      3146.231 6        36.246               
G03  22945065.919 6 120655701.535 6      3041.589 6        36.179               
G30  21278287.210 7 111858753.317 7       340.297 7        43.074               
> 2023 01 31 10 42 28.0000000  0  4                                             
G17  21953302.570 6 115406198.538 6      1759.757 6        41.294               
G19  23178975.191 6 121847189.312 6      3145.620 6        36.386               
G03  22944423.957 6 120652659.619 6      3042.182 6        36.533               
G30  21278165.361 7 111858412.404 7       340.843 7        43.276               
> 2023 01 31 10 42 29.0000000  0  4                                             
G17  21952907.521 6 115404437.530 6      1759.954 6        41.274               
G19  23178323.955 6 121844046.412 6      3139.256 6        36.149               
G03  22943792.903 6 120649617.889 6      3038.647 6        36.848               
G30  21278056.860 7 111858071.777 7       341.124 7        43.416               
> 2023 01 31 10 42 30.0000000  0  4                                             
G17  21952517.709 6 115402676.191 6      1762.520 6        41.622               
G19  23177662.131 6 121840903.341 6      3140.035 6        36.177               
G03  22943161.028 6 120646576.280 6      3035.052 6        37.128               
G30  21277937.343 7 111857731.359 7       338.802 7        43.499               
> 2023 01 31 10 42 31.0000000  0  4                                             
G17  21952131.416 6 115400914.964 6      1763.398 6        41.487               
G19  23177003.765 6 121837760.416 6      3143.048 6        36.182               
G03  22942518.261 6 120643535.138 6      3040.694 6        37.375               
G30  21277816.504 7 111857391.502 7       339.454 7        43.649               
> 2023 01 31 10 42 32.0000000  0  4                                             
G17  21951734.572 6 115399153.643 6      1763.529 6        41.684               
G19  23176366.296 6 121834617.470 6      3146.043 6        36.280               
G03  22941888.718 6 120640494.285 6      3040.077 6        36.787               
G30  21277690.938 7 111857052.043 7       338.692 7        43.828               
> 2023 01 31 10 42 33.0000000  0  4                                             
G17  21951352.291 6 115397392.084 6      1760.980 6        41.690               
G19  23175713.157 5 121831474.380 5      3137.804 5        35.835               
G03  22941259.031 6 120637453.595 6      3037.464 6        36.881               
G30  21277574.191 7 111856712.841 7       337.651 7        43.498               
> 2023 01 31 10 42 34.0000000  0  4                                             
G17  21950957.403 7 115395630.299 7      1762.313 7        42.127               
G19  23175064.047 6 121828331.134 6      3137.296 6        36.231               
G03  22940618.382 6 120634413.038 6      3038.189 6        37.153               
G30  21277454.254 7 111856373.872 7       339.949 7        44.058               
> 2023 01 31 10 42 35.0000000  0  4                                             
G17  21950572.049 6 115393868.415 6      1762.450 6        41.753               
G19  23174396.978 6 121825187.871 6      3145.640 6        36.381               
G03  22939994.843 6 120631372.808 6      3043.289 6        36.588               
G30  21277338.186 7 111856035.339 7       337.371 7        43.750               
> 2023 01 31 10 42 36.0000000  0  4                                             
G17  21950180.548 6 115392106.318 6      1760.937 6        41.557               
G19  23173746.394 5 121822044.496 5      3142.503 5        35.882               
G03  22939361.824 6 120628332.739 6      3043.036 6        36.776               
G30  21277217.963 7 111855697.030 7       338.483 7        43.493               
> 2023 01 31 10 42 37.0000000  0  4                                             
G17  21949790.092 6 115390344.148 6      1757.502 6        41.494               
G19  23173097.114 6 121818901.071 6      3144.625 6        36.522               
G03  22938732.905 6 120625292.990 6      3034.818 6        36.921               
G30  21277094.247 7 111855359.159 7       336.005 7        43.555               
> 2023 01 31 10 42 38.0000000  0  4                                             
G17  21949397.152 6 115388581.460 6      1761.492 6        41.705               
G19  23172439.248 6 121815757.235 6      3140.745 6        36.280               
G03  22938091.148 6 120622253.096 6      3040.828 6        37.114               
G30  21276977.839 7 111855021.247 7       337.025 7        44.022               
> 2023 01 31 10 42 39.0000000  0  4                                             
G17  21949009.814 6 115386819.026 6      1762.711 6        41.486               
G19  23171774.797 6 121812613.750 6      3141.466 6        36.181               
G03  22937456.664 6 120619213.859 6      3029.985 6        36.849               
G30  21276866.837 7 111854684.083 7       335.484 7        43.563               
> 2023 01 31 10 42 40.0000000  0  4                                             
G17  21948616.570 6 115385056.665 6      1760.148 6        41.629               
G19  23171143.699 6 121809470.382 6      3138.809 6        37.124               
G03  22936833.330 6 120616175.099 6      3033.602 6        37.249               
G30  21276745.024 7 111854347.490 7       336.954 7        43.668               
> 2023 01 31 10 42 41.0000000  0  4                                             
G17  21948231.645 6 115383294.235 6      1762.379 6        41.707               
G19  23170481.464 6 121806327.062 6      3140.978 6        37.339               
G03  22936197.175 6 120613136.647 6      3029.974 6        36.836               
G30  21276624.381 7 111854011.311 7       337.968 7        44.152               
> 2023 01 31 10 42 42.0000000  0  4                                             
G17  21947834.809 6 115381531.694 6      1761.966 6        41.579               
G19  23169823.804 6 121803183.668 6      3140.112 6        36.895               
G03  22935568.900 6 120610098.451 6      3040.112 6        37.437               
G30  21276501.576 7 111853675.469 7       334.788 7        43.730               
> 2023 01 31 10 42 43.0000000  0  4                                             
G17  21947447.820 6 115379768.942 6      1758.884 6        41.728               
G19  23169171.611 6 121800040.122 6      3146.775 6        36.598               
G03  22934923.864 6 120607060.461 6      3032.997 6        36.261               
G30  21276387.938 7 111853339.922 7       335.118 7        43.811               
> 2023 01 31 10 42 44.0000000  0  4                                             
G17  21947052.316 7 115378005.697 7      1765.382 7        42.287               
G19  23168527.942 6 121796896.204 6      3141.131 6        36.919               
G03  22934294.142 6 120604022.347 6      3042.001 6        36.340               
G30  21276271.450 7 111853004.364 7       337.081 7        43.476               
> 2023 01 31 10 42 45.0000000  0  4                                             
G17  21946664.281 6 115376242.173 6      1763.737 6        41.812               
G19  23167867.128 6 121793752.084 6      3138.318 6        36.106               
G03  22933654.744 6 120600984.342 6      3037.921 6        36.688               
G30  21276152.147 7 111852669.021 7       332.618 7        43.584               
> 2023 01 31 10 42 46.0000000  0  4                                             
G17  21946287.897 6 115374478.390 6      1767.583 6        41.660               
G19  23167223.825 6 121790607.772 6      3139.495 6        37.051               
G03  22933023.458 6 120597946.540 6      3040.233 6        36.753               
G30  21276031.219 7 111852333.897 7       335.769 7        43.270               
> 2023 01 31 10 42 47.0000000  0  4                                             
G17  21945885.844 6 115372715.209 6      1762.212 6        41.263               
G19  23166562.180 6 121787464.142 6      3145.704 6        36.475               
G03  22932389.590 6 120594909.642 6      3041.025 6        36.029               
G30  21275904.813 7 111851999.862 7       336.733 7        43.268               
> 2023 01 31 10 42 48.0000000  0  4                                             
G17  21945494.325 6 115370951.888 6      1763.346 6        41.451               
G19  23165913.802 6 121784320.413 6      3144.809 6        36.540               
G03  22931761.351 6 120591873.039 6      3032.721 6        36.400               
G30  21275792.801 7 111851666.171 7       335.850 7        43.618               
> 2023 01 31 10 42 49.0000000  0  4                                             
G17  21945105.263 6 115369188.491 6      1763.223 6        41.708               
G19  23165267.784 6 121781176.734 6      3139.760 6        37.038               
G03  22931136.668 5 120588836.740 5      3038.933 5        35.770               
G30  21275679.172 7 111851332.912 7       330.796 7        43.498               
> 2023 01 31 10 42 50.0000000  0  4                                             
G17  21944716.040 6 115367424.662 6      1764.047 6        41.264               
G19  23164608.524 6 121778032.684 6      3146.217 6        37.284               
G03  22930499.092 5 120585800.409 5      3033.694 5        35.667               
G30  21275563.640 7 111850999.668 7       336.409 7        43.356               
> 2023 01 31 10 42 51.0000000  0  4                                             
G17  21944324.672 6 115365660.424 6      1762.385 6        41.161               
G19  23163948.406 6 121774888.296 6      3145.170 6        36.588               
G03  22929863.518 6 120582764.049 6      3031.022 6        36.330               
G30  21275436.109 7 111850666.531 7       334.417 7        43.447               
> 2023 01 31 10 42 52.0000000  0  4                                             
G17  21943930.973 6 115363896.061 6      1764.056 6        41.668               
G19  23163293.802 6 121771743.867 6      3152.343 6        36.714               
G03  22929236.351 6 120579727.960 6      3036.872 6        36.630               
G30  21275312.946 7 111850333.739 7       330.907 7        43.522               
> 2023 01 31 10 42 53.0000000  0  4                                             
G17  21943544.823 6 115362131.629 6      1765.516 6        41.393               
G19  23162648.962 6 121768599.457 6      3148.606 6        36.719               
G03  22928604.359 6 120576692.206 6      3040.317 6        37.007               
G30  21275204.115 7 111850001.394 7       336.142 7        43.523               
> 2023 01 31 10 42 54.0000000  0  4                                             
G17  21943147.899 6 115360366.362 6      1763.741 6        41.177               
G19  23161982.126 6 121765454.257 6      3150.275 6        36.932               
G03  22927971.054 6 120573656.007 6      3033.142 6        36.495               
G30  21275086.787 7 111849668.676 7       329.227 7        43.348               
> 2023 01 31 10 42 55.0000000  0  4                                             
G17  21942756.469 6 115358601.183 6      1767.919 6        41.560               
G19  23161343.693 6 121762309.248 6      3150.323 6        36.687               
G03  22927329.958 6 120570620.271 6      3035.100 6        36.544               
G30  21274971.559 7 111849336.523 7       331.323 7        43.017               
> 2023 01 31 10 42 56.0000000  0  4                                             
G17  21942372.338 6 115356836.603 6      1766.834 6        41.651               
G19  23160679.671 6 121759164.941 6      3146.461 6        36.542               
G03  22926710.716 6 120567585.531 6      3038.639 6        36.496               
G30  21274844.144 7 111849005.485 7       331.602 7        43.098               
> 2023 01 31 10 42 57.0000000  0  4                                             
G17  21941979.452 6 115355072.054 6      1765.127 6        41.267               
G19  23160030.623 6 121756020.726 6      3146.372 6        36.899               
G03  22926072.068 6 120564551.234 6      3034.912 6        36.737               
G30  21274727.155 7 111848674.938 7       331.681 7        43.510               
> 2023 01 31 10 42 58.0000000  0  4                                             
G17  21941588.782 6 115353307.169 6      1763.275 6        41.755               
G19  23159381.727 6 121752876.244 6      3138.260 6        37.268               
G03  22925433.269 6 120561516.962 6      3037.519 6        36.860               
G30  21274610.417 7 111848344.540 7       330.245 7        43.670               
> 2023 01 31 10 42 59.0000000  0  4                                             
G17  21941200.390 6 115351542.278 6      1766.278 6        41.757               
G19  23158730.598 6 121749731.840 6      3152.904 6        36.569               
G03  22924806.530 6 120558483.107 6      3034.140 6        36.658               
G30  21274495.492 7 111848014.620 7       331.227 7        43.493               
> 2023 01 31 10 43 00.0000000  0  4                                             
G17  21940804.430 6 115349777.113 6      1769.289 6        41.425               
G19  23158077.244 6 121746587.222 6      3146.100 6        37.064               
G03  22924169.732 6 120555449.378 6      3025.145 6        36.764               
G30  21274379.728 7 111847684.913 7       331.043 7        43.681               
> 2023 01 31 10 43 01.0000000  0  5                                             
G17  21940417.530 6 115348011.621 6      1764.629 6        41.763               
G06  22665162.962 6 119106451.787 6      4758.963 6        37.582               
G19  23157423.131 6 121743442.354 6      3147.127 6        37.081               
G03  22923546.809 6 120552415.655 6      3031.366 6        36.666               
G30  21274254.671 7 111847355.354 7       328.580 7        43.437               
> 2023 01 31 10 43 02.0000000  0  5                                             
G17  21940026.976 6 115346246.171 6      1764.240 6        41.593               
G06  22664182.086 6 119101687.552 6      4760.935 6        37.548               
G19  23156766.256 6 121740297.619 6      3150.985 6        36.967               
G03  22922911.387 6 120549382.418 6      3030.392 6        36.989               
G30  21274141.614 7 111847026.358 7       329.011 7        43.727               
> 2023 01 31 10 43 03.0000000  0  5                                             
G17  21939642.086 6 115344480.531 6      1765.032 6        41.757               
G06  22663218.749 6 119096923.411 6      4761.167 6        37.109               
G19  23156121.238 6 121737152.763 6      3150.264 6        36.392               
G03  22922272.185 6 120546349.378 6      3030.421 6        36.703               
G30  21274025.108 7 111846697.634 7       330.827 7        43.735               
> 2023 01 31 10 43 04.0000000  0  5                                             
G17  21939247.681 6 115342714.543 6      1766.447 6        41.538               
G06  22662285.164 6 119092159.216 6      4764.005 6        37.108               
G19  23155468.161 6 121734007.682 6      3151.380 6        36.729               
G03  22921659.125 6 120543316.350 6      3032.264 6        36.737               
G30  21273905.430 7 111846369.042 7       328.457 7        43.542               
> 2023 01 31 10 43 05.0000000  0  5                                             
G17  21938856.153 6 115340948.529 6      1767.030 6        41.491               
G06  22661304.807 6 119087395.200 6      4759.093 6        36.997               
G19  23154804.863 6 121730862.620 6      3137.286 6        36.634               
G03  22921027.295 6 120540283.701 6      3026.634 6        36.185               
G30  21273791.944 7 111846040.907 7       325.751 7        43.468               
> 2023 01 31 10 43 06.0000000  0  5                                             
G17  21938464.374 6 115339182.839 6      1767.182 6        41.670               
G06  22660351.459 6 119082631.991 6      4766.084 6        37.398               
G19  23154154.029 6 121727717.938 6      3144.082 6        36.688               
G03  22920376.380 6 120537251.784 6      3029.359 6        36.033               
G30  21273669.720 7 111845713.593 7       328.319 7        43.391               
> 2023 01 31 10 43 07.0000000  0  5                                             
G17  21938067.834 6 115337416.640 6      1763.857 6        41.786               
G06  22659387.157 6 119077868.570 6      4760.617 6        37.769               
G19  23153507.608 6 121724572.846 6      3142.548 6        36.589               
G03  22919741.243 6 120534219.788 6      3034.180 6        36.278               
G30  21273556.931 7 111845386.262 7       327.787 7        43.334               
> 2023 01 31 10 43 08.0000000  0  5                                             
G17  21937681.827 6 115335650.250 6      1769.433 6        41.650               
G06  22658424.535 6 119073105.243 6      4760.609 6        36.936               
G19  23152847.767 6 121721427.635 6      3143.609 6        36.198               
G03  22919114.559 6 120531187.948 6      3031.437 6        36.870               
G30  21273440.058 7 111845059.212 7       324.536 7        43.717               
> 2023 01 31 10 43 09.0000000  0  5                                             
G17  21937292.586 6 115333883.889 6      1766.538 6        41.780               
G06  22657459.903 6 119068342.246 6      4763.764 6        36.536               
G19  23152201.311 6 121718282.533 6      3143.648 6        36.741               
G03  22918490.474 5 120528156.539 5      3028.267 5        35.962               
G30  21273322.239 7 111844732.674 7       325.618 7        43.819               
> 2023 01 31 10 43 10.0000000  0  5                                             
G17  21936898.914 6 115332117.493 6      1768.584 6        41.597               
G06  22656493.233 6 119063579.561 6      4763.752 6        36.886               
G19  23151538.897 6 121715137.479 6      3147.923 6        36.464               
G03  22917859.421 6 120525125.498 6      3030.869 6        36.405               
G30  21273203.160 7 111844406.600 7       328.934 7        43.650               
> 2023 01 31 10 43 11.0000000  0  5                                             
G17  21936506.224 6 115330350.768 6      1769.973 6        41.854               
G06  22655559.684 6 119058816.888 6      4761.840 6        37.181               
G19  23150888.545 6 121711992.176 6      3139.943 6        37.344               
G03  22917217.932 6 120522094.532 6      3035.514 6        36.631               
G30  21273089.450 7 111844080.683 7       326.645 7        43.678               
> 2023 01 31 10 43 12.0000000  0  5                                             
G17  21936117.224 6 115328583.927 6      1766.597 6        41.328               
G06  22654581.293 6 119054054.328 6      4767.563 6        36.768               
G19  23150235.459 6 121708846.799 6      3145.949 6        36.707               
G03  22916598.207 6 120519063.824 6      3024.712 6        36.675               
G30  21272976.143 7 111843755.111 7       325.176 7        43.770               
> 2023 01 31 10 43 13.0000000  0  5                                             
G17  21935721.211 6 115326817.200 6      1767.207 6        41.339               
G06  22653624.478 6 119049292.288 6      4763.245 6        36.621               
G19  23149598.008 6 121705701.643 6      3136.464 6        36.703               
G03  22915963.008 6 120516033.648 6      3025.952 6        36.531               
G30  21272860.021 7 111843430.144 7       324.735 7        43.917               
> 2023 01 31 10 43 14.0000000  0  5                                             
G17  21935337.286 6 115325050.054 6      1768.080 6        41.365               
G06  22652666.386 6 119044530.105 6      4765.210 6        37.352               
G19  23148930.315 6 121702556.149 6      3145.401 6        36.857               
G03  22915326.004 6 120513003.431 6      3035.082 6        36.726               
G30  21272737.466 7 111843105.259 7       324.657 7        43.573               
> 2023 01 31 10 43 15.0000000  0  5                                             
G17  21934938.834 6 115323282.926 6      1768.396 6        41.856               
G06  22651712.135 6 119039768.244 6      4768.370 6        37.434               
G19  23148281.464 6 121699410.717 6      3146.838 6        37.293               
G03  22914708.960 6 120509973.603 6      3029.274 6        36.719               
G30  21272615.117 7 111842780.862 7       325.248 7        43.428               
> 2023 01 31 10 43 16.0000000  0  5                                             
G17  21934556.035 6 115321515.963 6      1766.752 6        41.669               
G06  22650743.723 6 119035006.876 6      4758.974 6        37.493               
G19  23147617.433 6 121696265.554 6      3145.877 6        37.393               
G03  22914060.252 6 120506944.343 6      3028.637 6        36.498               
G30  21272506.286 7 111842457.124 7       320.896 7        43.378               
> 2023 01 31 10 43 17.0000000  0  5                                             
G17  21934162.121 6 115319748.606 6      1769.275 6        41.970               
G06  22649779.198 6 119030245.435 6      4765.262 6        37.072               
G19  23146961.363 6 121693120.074 6      3149.578 6        36.354               
G03  22913418.522 6 120503915.123 6      3029.137 6        36.802               
G30  21272388.225 7 111842133.471 7       324.114 7        43.762               
> 2023 01 31 10 43 18.0000000  0  5                                             
G17  21933771.084 6 115317981.133 6      1765.875 6        41.674               
G06  22648817.809 6 119025484.177 6      4761.128 6        36.747               
G19  23146309.724 6 121689974.521 6      3146.149 6        36.517               
G03  22912798.601 6 120500886.138 6      3036.615 6        37.148               
G30  21272273.470 7 111841810.176 7       320.296 7        43.432               
> 2023 01 31 10 43 19.0000000  0  5                                             
G17  21933375.821 7 115316213.712 7      1766.332 7        42.059               
G06  22647851.139 6 119020723.310 6      4760.493 6        36.811               
G19  23145654.690 6 121686829.136 6      3152.030 6        36.464               
G03  22912167.315 6 120497857.620 6      3022.617 6        36.838               
G30  21272150.129 7 111841487.453 7       320.497 7        43.451               
> 2023 01 31 10 43 20.0000000  0  5                                             
G17  21932983.328 6 115314445.977 6      1765.831 6        41.276               
G06  22646905.770 6 119015962.412 6      4760.022 6        36.674               
G19  23145011.504 6 121683683.499 6      3148.646 6        36.239               
G03  22911547.296 6 120494829.178 6      3021.292 6        36.647               
G30  21272038.189 7 111841164.843 7       323.040 7        43.688               
> 2023 01 31 10 43 21.0000000  0  5                                             
G17  21932597.894 6 115312678.037 6      1768.409 6        41.412               
G06  22645930.586 6 119011201.663 6      4762.408 6        36.811               
G19  23144353.933 6 121680537.759 6      3140.950 6        36.794               
G03  22910900.714 6 120491800.949 6      3020.836 6        36.533               
G30  21271922.496 7 111840842.550 7       319.872 7        43.578               
> 2023 01 31 10 43 22.0000000  0  5                                             
G17  21932210.958 6 115310910.843 6      1767.361 6        41.912               
G06  22644960.870 6 119006441.962 6      4760.277 6        36.902               
G19  23143699.587 6 121677392.814 6      3145.072 6        36.932               
G03  22910271.778 6 120488773.830 6      3029.059 6        36.345               
G30  21271808.375 7 111840521.486 7       319.946 7        43.529               
> 2023 01 31 10 43 23.0000000  0  5                                             
G17  21931817.696 7 115309143.585 7      1766.991 7        42.247               
G06  22644017.912 6 119001682.506 6      4758.656 6        36.818               
G19  23143048.368 6 121674247.882 6      3143.835 6        36.367               
G03  22909648.283 6 120485747.063 6      3024.107 6        36.722               
G30  21271689.886 7 111840200.827 7       321.532 7        43.722               
> 2023 01 31 10 43 24.0000000  0  5                                             
G17  21931424.739 7 115307376.113 7      1767.911 7        42.055               
G06  22643059.579 6 118996923.200 6      4758.248 6        36.999               
G19  23142387.331 6 121671102.842 6      3146.293 6        36.769               
G03  22909027.781 6 120482720.458 6      3030.716 6        36.523               
G30  21271576.355 7 111839880.462 7       319.348 7        43.607               
> 2023 01 31 10 43 25.0000000  0  5                                             
G17  21931027.367 7 115305608.613 7      1767.539 7        42.029               
G06  22642092.195 6 118992164.129 6      4761.486 6        36.954               
G19  23141743.849 6 121667957.834 6      3139.194 6        36.692               
G03  22908383.728 6 120479694.253 6      3028.097 6        36.080               
G30  21271461.529 7 111839560.556 7       321.589 7        43.439               
> 2023 01 31 10 43 26.0000000  0  5                                             
G17  21930646.426 6 115303840.983 6      1766.360 6        41.938               
G06  22641126.294 6 118987405.256 6      4757.752 6        36.915               
G19  23141092.729 6 121664812.778 6      3143.239 6        37.511               
G03  22907748.788 6 120476668.294 6      3020.648 6        36.182               
G30  21271346.443 7 111839240.989 7       319.630 7        43.632               
> 2023 01 31 10 43 27.0000000  0  5                                             
G17  21930251.834 6 115302072.892 6      1768.512 6        41.659               
G06  22640166.620 6 118982646.253 6      4760.853 6        36.984               
G19  23140427.394 6 121661667.335 6      3145.677 6        36.827               
G03  22907129.144 5 120473642.257 5      3022.415 5        35.552               
G30  21271229.088 7 111838921.448 7       320.741 7        43.670               
> 2023 01 31 10 43 28.0000000  0  5                                             
G17  21929853.926 6 115300303.766 6      1769.379 6        41.720               
G06  22639211.270 6 118977886.500 6      4763.458 6        36.702               
G19  23139779.150 6 121658520.930 6      3143.289 6        36.601               
G03  22906495.571 5 120470615.601 5      3027.130 5        35.845               
G30  21271112.279 7 111838601.363 7       319.792 7        43.726               
> 2023 01 31 10 43 29.0000000  0  5                                             
G17  21929469.760 6 115298535.879 6      1764.955 6        41.897               
G06  22638263.649 6 118973128.303 6      4756.664 6        37.561               
G19  23139125.287 6 121655375.837 6      3142.722 6        36.837               
G03  22905873.398 6 120467590.579 6      3029.771 6        36.701               
G30  21270996.630 7 111838282.995 7       316.760 7        43.848               
> 2023 01 31 10 43 30.0000000  0  5                                             
G17  21929071.031 6 115296767.735 6      1767.520 6        41.794               
G06  22637288.331 6 118968370.209 6      4757.012 6        36.837               
G19  23138472.487 6 121652230.560 6      3158.563 6        36.263               
G03  22905226.057 6 120464565.699 6      3022.807 6        36.597               
G30  21270883.770 7 111837964.851 7       316.343 7        43.897               
> 2023 01 31 10 43 31.0000000  0  5                                             
G17  21928682.022 6 115294999.267 6      1768.149 6        41.959               
G06  22636329.890 6 118963612.099 6      4762.670 6        36.734               
G19  23137812.226 5 121649085.073 5      3148.693 5        35.524               
G03  22904605.806 6 120461540.881 6      3027.989 6        36.008               
G30  21270766.897 7 111837646.866 7       317.887 7        43.667               
> 2023 01 31 10 43 32.0000000  0  5                                             
G17  21928295.033 7 115293230.553 7      1771.741 7        42.124               
G06  22635367.241 6 118958854.053 6      4752.287 6        37.269               
G19  23137173.105 5 121645939.375 5      3140.279 5        35.633               
G03  22903968.605 6 120458516.249 6      3023.762 6        36.199               
G30  21270649.641 7 111837329.125 7       318.895 7        44.164               
> 2023 01 31 10 43 33.0000000  0  5                                             
G17  21927906.748 6 115291461.931 6      1770.261 6        41.418               
G06  22634414.483 6 118954096.405 6      4754.944 6        37.479               
G19  23136515.266 6 121642793.846 6      3153.962 6        36.667               
G03  22903351.793 5 120455492.054 5      3026.773 5        35.165               
G30  21270532.063 7 111837011.953 7       315.825 7        43.924               
> 2023 01 31 10 43 34.0000000  0  5                                             
G17  21927520.714 6 115289692.810 6      1767.491 6        41.724               
G06  22633464.378 6 118949338.576 6      4759.367 6        37.597               
G19  23135855.434 6 121639647.917 6      3142.087 6        37.041               
G03  22902706.981 6 120452467.773 6      3027.439 6        36.294               
G30  21270422.990 7 111836694.775 7       318.478 7        43.175               
> 2023 01 31 10 43 35.0000000  0  5                                             
G17  21927123.379 7 115287923.638 7      1767.492 7        42.053               
G06  22632490.293 6 118944581.037 6      4757.672 6        37.454               
G19  23135211.560 6 121636502.011 6      3134.801 6        36.708               
G03  22902076.919 6 120449443.850 6      3022.342 6        36.451               
G30  21270305.626 7 111836378.015 7       314.774 7        43.665               
> 2023 01 31 10 43 36.0000000  0  5                                             
G17  21926733.200 6 115286154.387 6      1765.652 6        41.263               
G06  22631524.982 6 118939823.734 6      4759.743 6        36.669               
G19  23134552.783 6 121633356.116 6      3146.351 6        37.060               
G03  22901451.753 6 120446420.246 6      3022.126 6        36.600               
G30  21270191.282 7 111836061.670 7       313.863 7        43.689               
> 2023 01 31 10 43 37.0000000  0  5                                             
G17  21926339.081 6 115284384.545 6      1765.890 6        41.731               
G06  22630568.774 6 118935066.145 6      4759.091 6        37.035               
G19  23133902.413 6 121630209.667 6      3145.409 6        36.935               
G03  22900823.085 6 120443396.444 6      3016.706 6        36.497               
G30  21270071.480 7 111835745.202 7       317.210 7        43.531               
> 2023 01 31 10 43 38.0000000  0  5                                             
G17  21925939.422 6 115282614.689 6      1769.612 6        41.543               
G06  22629615.382 6 118930308.892 6      4752.852 6        36.835               
G19  23133248.040 6 121627063.316 6      3148.018 6        37.523               
G03  22900185.715 6 120440373.052 6      3020.234 6        36.572               
G30  21269959.575 7 111835429.248 7       316.210 7        44.067               
> 2023 01 31 10 43 39.0000000  0  5                                             
G17  21925558.678 6 115280844.855 6      1772.851 6        41.812               
G06  22628652.947 6 118925551.961 6      4755.438 6        36.611               
G19  23132585.207 6 121623917.084 6      3143.318 6        36.599               
G03  22899566.687 5 120437350.059 5      3020.488 5        35.971               
G30  21269847.536 7 111835113.773 7       315.575 7        43.480               
> 2023 01 31 10 43 40.0000000  0  5                                             
G17  21925159.278 6 115279075.225 6      1771.232 6        41.546               
G06  22627687.046 6 118920795.525 6      4758.259 6        37.482               
G19  23131941.305 6 121620771.097 6      3146.779 6        37.028               
G03  22898941.432 6 120434327.668 6      3023.220 6        36.978               
G30  21269728.135 7 111834798.997 7       312.253 7        43.390               
> 2023 01 31 10 43 41.0000000  0  5                                             
G17  21924767.759 6 115277305.536 6      1771.063 6        41.812               
G06  22626739.336 6 118916039.372 6      4759.417 6        37.491               
G19  23131290.667 6 121617625.133 6      3149.810 6        37.282               
G03  22898300.319 6 120431305.629 6      3023.435 6        36.517               
G30  21269612.192 7 111834484.625 7       313.810 7        43.280               
> 2023 01 31 10 43 42.0000000  0  5                                             
G17  21924377.705 6 115275535.688 6      1773.636 6        41.866               
G06  22625765.063 6 118911283.385 6      4757.012 6        37.232               
G19  23130631.408 6 121614479.108 6      3153.103 6        37.684               
G03  22897668.854 6 120428283.800 6      3026.692 6        36.321               
G30  21269503.325 7 111834170.592 7       312.855 7        43.253               
> 2023 01 31 10 43 43.0000000  0  5                                             
G17  21923982.853 6 115273765.206 6      1770.496 6        41.135               
G06  22624808.579 6 118906527.095 6      4757.922 6        37.450               
G19  23129979.840 6 121611332.531 6      3147.669 6        37.146               
G03  22897038.846 6 120425261.769 6      3018.012 6        36.803               
G30  21269392.725 7 111833856.421 7       312.485 7        43.219               
> 2023 01 31 10 43 44.0000000  0  5                                             
G17  21923594.372 6 115271994.958 6      1769.343 6        41.176               
G06  22623859.850 6 118901771.316 6      4753.648 6        37.312               
G19  23129322.850 6 121608186.229 6      3149.603 6        37.175               
G03  22896407.480 6 120422240.348 6      3031.440 6        36.900               
G30  21269275.102 7 111833542.952 7       312.863 7        43.702               
> 2023 01 31 10 43 45.0000000  0  5                                             
G17  21923201.414 6 115270224.426 6      1771.613 6        41.244               
G06  22622894.226 6 118897015.599 6      4754.965 6        36.907               
G19  23128664.198 6 121605039.750 6      3146.497 6        36.797               
G03  22895778.026 6 120419219.057 6      3024.953 6        36.416               
G30  21269154.754 7 111833229.685 7       312.109 7        44.071               
> 2023 01 31 10 43 46.0000000  0  5                                             
G17  21922803.614 6 115268453.724 6      1772.991 6        41.439               
G06  22621931.764 6 118892260.036 6      4751.830 6        37.088               
G19  23128018.465 6 121601893.157 6      3144.267 6        36.079               
G03  22895158.122 6 120416197.973 6      3019.877 6        36.546               
G30  21269045.110 7 111832916.720 7       313.996 7        44.037               
> 2023 01 31 10 43 47.0000000  0  5                                             
G17  21922413.712 6 115266682.892 6      1769.912 6        41.444               
G06  22620978.193 6 118887504.650 6      4749.952 6        37.528               
G19  23127365.129 6 121598746.516 6      3143.354 6        36.175               
G03  22894514.570 6 120413177.194 6      3012.582 6        36.902               
G30  21268928.720 7 111832604.115 7       314.296 7        43.922               
> 2023 01 31 10 43 48.0000000  0  5                                             
G17  21922027.223 6 115264912.020 6      1772.651 6        41.479               
G06  22620017.786 6 118882749.535 6      4754.912 6        37.524               
G19  23126708.174 5 121595599.918 5      3144.936 5        35.884               
G03  22893892.754 6 120410156.702 6      3017.176 6        36.443               
G30  21268817.012 7 111832291.948 7       315.723 7        43.916               
> 2023 01 31 10 43 49.0000000  0  5                                             
G17  21921633.336 6 115263140.850 6      1771.315 6        41.002               
G06  22619058.238 6 118877994.458 6      4755.116 6        37.394               
G19  23126056.688 6 121592453.109 6      3152.096 6        36.076               
G03  22893260.423 6 120407136.401 6      3022.987 6        36.582               
G30  21268698.049 7 111831979.993 7       314.314 7        43.719               
> 2023 01 31 10 43 50.0000000  0  5                                             
G17  21921244.828 6 115261369.476 6      1770.327 6        40.956               
G06  22618096.036 6 118873239.499 6      4752.980 6        37.661               
G19  23125402.002 6 121589306.161 6      3148.949 6        36.301               
G03  22892623.491 6 120404116.247 6      3015.462 6        36.404               
G30  21268585.903 7 111831668.301 7       312.549 7        43.807               
> 2023 01 31 10 43 51.0000000  0  5                                             
G17  21920847.304 6 115259598.012 6      1771.049 6        41.334               
G06  22617131.475 6 118868484.781 6      4754.870 6        37.780               
G19  23124757.181 6 121586159.225 6      3142.827 6        36.764               
G03  22891995.556 6 120401096.415 6      3016.718 6        36.208               
G30  21268471.505 7 111831357.009 7       309.607 7        43.885               
> 2023 01 31 10 43 52.0000000  0  5                                             
G17  21920457.420 6 115257826.433 6      1768.721 6        41.121               
G06  22616187.856 6 118863730.236 6      4745.199 6        36.413               
G19  23124092.051 6 121583012.236 6      3144.151 6        37.219               
G03  22891375.188 6 120398076.851 6      3017.179 6        36.400               
G30  21268361.718 7 111831046.076 7       310.995 7        43.883               
> 2023 01 31 10 43 53.0000000  0  5                                             
G17  21920069.957 6 115256054.851 6      1770.112 6        40.892               
G06  22615215.361 6 118858976.006 6      4750.574 6        37.188               
G19  23123439.358 6 121579865.300 6      3151.710 6        36.980               
G03  22890742.857 6 120395057.707 6      3022.208 6        36.339               
G30  21268244.461 7 111830735.613 7       310.566 7        43.677               
> 2023 01 31 10 43 54.0000000  0  5                                             
G17  21919673.855 6 115254283.351 6      1771.713 6        41.022               
G06  22614255.795 6 118854222.205 6      4752.023 6        36.834               
G19  23122779.276 6 121576718.570 6      3142.955 6        37.143               
G03  22890114.475 6 120392039.015 6      3020.231 6        36.231               
G30  21268125.981 7 111830425.739 7       310.143 7        43.632               
> 2023 01 31 10 43 55.0000000  0  5                                             
G17  21919288.902 6 115252511.525 6      1773.855 6        40.834               
G06  22613284.024 6 118849468.400 6      4749.781 6        36.487               
G19  23122131.015 6 121573571.557 6      3144.210 6        36.898               
G03  22889476.005 6 120389020.445 6      3011.612 6        36.547               
G30  21268016.685 7 111830116.016 7       309.104 7        43.310               
> 2023 01 31 10 43 56.0000000  0  5                                             
G17  21918890.557 6 115250739.341 6      1769.030 6        41.205               
G06  22612325.476 6 118844714.536 6      4748.753 6        37.613               
G19  23121485.774 6 121570424.269 6      3148.280 6        37.119               
G03  22888854.378 6 120386001.886 6      3016.003 6        36.301               
G30  21267903.681 7 111829806.405 7       307.464 7        43.802               
> 2023 01 31 10 43 57.0000000  0  5                                             
G17  21918498.135 6 115248966.901 6      1769.167 6        40.798               
G06  22611375.612 6 118839960.780 6      4752.974 6        37.068               
G19  23120833.938 6 121567276.817 6      3154.200 6        37.326               
G03  22888223.521 6 120382983.491 6      3016.367 6        36.472               
G30  21267787.774 7 111829497.050 7       308.108 7        43.701               
> 2023 01 31 10 43 58.0000000  0  5                                             
G17  21918108.653 6 115247194.782 6      1771.327 6        41.272               
G06  22610424.909 6 118835207.599 6      4757.048 6        36.593               
G19  23120183.158 6 121564129.742 6      3145.093 6        37.067               
G03  22887594.665 6 120379965.779 6      3022.007 6        36.710               
G30  21267675.529 7 111829188.456 7       308.901 7        43.694               
> 2023 01 31 10 43 59.0000000  0  5                                             
G17  21917709.951 6 115245422.225 6      1775.047 6        41.355               
G06  22609452.771 6 118830454.364 6      4744.537 6        37.429               
G19  23119524.800 6 121560982.320 6      3145.390 6        37.278               
G03  22886970.902 6 120376948.088 6      3015.714 6        36.337               
G30  21267563.794 7 111828879.949 7       309.203 7        44.218               
> 2023 01 31 10 44 00.0000000  0  5                                             
G17  21917326.544 6 115243649.389 6      1773.414 6        41.197               
G06  22608493.589 6 118825701.125 6      4755.096 6        37.085               
G19  23118871.553 6 121557834.691 6      3143.390 6        37.301               
G03  22886350.642 6 120373930.479 6      3019.935 6        36.393               
G30  21267452.149 7 111828571.619 7       308.544 7        43.448               
> 2023 01 31 10 44 01.0000000  0  5                                             
G17  21916927.368 6 115241876.211 6      1772.535 6        40.940               
G06  22607541.197 6 118820947.920 6      4751.753 6        37.566               
G19  23118210.578 6 121554686.821 6      3151.004 6        36.807               
G03  22885715.952 6 120370912.916 6      3016.540 6        37.231               
G30  21267337.760 7 111828263.437 7       308.633 7        43.493               
> 2023 01 31 10 44 02.0000000  0  5                                             
G17  21916542.576 6 115240103.017 6      1771.872 6        41.507               
G06  22606583.900 6 118816194.936 6      4749.958 6        37.286               
G19  23117552.900 6 121551538.971 6      3150.722 6        36.878               
G03  22885078.635 6 120367895.739 6      3015.616 6        36.514               
G30  21267221.040 7 111827955.705 7       308.075 7        43.656               
> 2023 01 31 10 44 03.0000000  0  5                                             
G17  21916148.422 6 115238329.816 6      1772.913 6        41.230               
G06  22605615.801 6 118811442.311 6      4751.338 6        36.789               
G19  23116903.861 6 121548391.191 6      3146.699 6        37.349               
G03  22884454.426 6 120364878.984 6      3011.052 6        36.925               
G30  21267107.241 7 111827648.459 7       306.373 7        43.687               
> 2023 01 31 10 44 04.0000000  0  5                                             
G17  21915751.131 6 115236556.409 6      1770.622 6        41.826               
G06  22604670.797 6 118806689.780 6      4755.690 6        37.382               
G19  23116253.938 6 121545243.270 6      3145.105 6        37.191               
G03  22883830.163 6 120361862.352 6      3018.537 6        36.709               
G30  21266999.991 7 111827341.481 7       305.121 7        43.549               
> 2023 01 31 10 44 05.0000000  0  5                                             
G17  21915355.778 6 115234782.754 6      1772.023 6        41.660               
G06  22603701.072 6 118801937.330 6      4753.636 6        37.211               
G19  23115595.170 6 121542095.215 6      3145.309 6        36.922               
G03  22883199.011 6 120358845.940 6      3024.239 6        36.475               
G30  21266882.609 7 111827034.733 7       305.853 7        43.649               
> 2023 01 31 10 44 06.0000000  0  5                                             
G17  21914974.882 6 115233008.730 6      1772.568 6        41.760               
G06  22602737.333 6 118797184.835 6      4748.224 6        37.383               
G19  23114945.917 6 121538946.865 6      3151.975 6        37.100               
G03  22882560.506 6 120355829.568 6      3025.496 6        36.406               
G30  21266762.539 7 111826728.116 7       306.255 7        43.536               
> 2023 01 31 10 44 07.0000000  0  5                                             
G17  21914574.277 6 115231234.533 6      1773.902 6        41.184               
G06  22601784.789 6 118792432.496 6      4753.474 6        37.646               
G19  23114281.600 6 121535798.409 6      3144.372 6        37.134               
G03  22881935.903 6 120352813.408 6      3016.095 6        36.157               
G30  21266655.762 7 111826421.795 7       306.041 7        43.813               
> 2023 01 31 10 44 08.0000000  0  5                                             
G17  21914185.438 6 115229460.682 6      1771.016 6        41.368               
G06  22600816.190 6 118787680.828 6      4755.305 6        37.820               
G19  23113636.725 6 121532650.345 6      3157.337 6        36.842               
G03  22881303.626 6 120349797.976 6      3015.891 6        36.308               
G30  21266544.349 7 111826116.305 7       304.358 7        44.060               
> 2023 01 31 10 44 09.0000000  0  5                                             
G17  21913782.143 6 115227686.151 6      1775.034 6        41.771               
G06  22599859.572 6 118782928.785 6      4754.547 6        36.634               
G19  23112981.280 6 121529501.711 6      3146.418 6        36.376               
G03  22880687.162 6 120346782.286 6      3010.562 6        36.181               
G30  21266432.596 7 111825810.617 7       303.925 7        43.318               
> 2023 01 31 10 44 10.0000000  0  5                                             
G17  21913395.109 6 115225912.126 6      1772.848 6        41.811               
G06  22598912.156 6 118778177.555 6      4748.925 6        37.426               
G19  23112320.627 6 121526353.665 6      3148.130 6        36.541               
G03  22880063.167 6 120343767.467 6      3013.973 6        36.740               
G30  21266314.017 7 111825505.912 7       305.639 7        43.750               
> 2023 01 31 10 44 11.0000000  0  5                                             
G17  21913006.136 7 115224137.703 7      1774.426 7        42.040               
G06  22597946.282 6 118773426.273 6      4755.720 6        37.770               
G19  23111670.980 6 121523205.273 6      3146.546 6        36.410               
G03  22879427.316 6 120340752.686 6      3013.272 6        36.784               
G30  21266200.593 7 111825201.305 7       303.791 7        43.691               
> 2023 01 31 10 44 12.0000000  0  5                                             
G17  21912615.707 7 115222363.586 7      1773.210 7        42.051               
G06  22596994.024 6 118768675.622 6      4759.053 6        37.114               
G19  23111020.289 6 121520057.288 6      3155.332 6        36.437               
G03  22878788.990 6 120337738.608 6      3015.903 6        36.649               
G30  21266090.842 7 111824897.485 7       305.320 7        42.762               
> 2023 01 31 10 44 13.0000000  0  5                                             
G17  21912226.484 6 115220589.040 6      1774.480 6        41.576               
G06  22596024.915 6 118763924.855 6      4751.169 6        37.580               
G19  23110362.950 6 121516908.940 6      3150.309 6        36.532               
G03  22878156.274 6 120334724.526 6      3009.852 6        36.802               
G30  21265980.134 7 111824593.721 7       304.528 7        43.184               
> 2023 01 31 10 44 14.0000000  0  5                                             
G17  21911829.791 6 115218814.523 6      1775.566 6        41.629               
G06  22595061.668 6 118759174.459 6      4752.616 6        37.553               
G19  23109708.524 6 121513760.709 6      3153.841 6        37.065               
G03  22877539.275 6 120331710.850 6      3016.307 6        36.425               
G30  21265866.773 7 111824290.477 7       303.491 7        43.193               
> 2023 01 31 10 44 15.0000000  0  5                                             
G17  21911436.369 7 115217040.104 7      1776.260 7        42.171               
G06  22594106.372 6 118754424.489 6      4749.837 6        37.703               
G19  23109061.165 6 121510612.688 6      3142.011 6        37.287               
G03  22876900.332 6 120328697.679 6      3011.574 6        36.177               
G30  21265753.680 7 111823987.798 7       305.352 7        43.690               
> 2023 01 31 10 44 16.0000000  0  5                                             
G17  21911043.653 7 115215265.401 7      1772.547 7        42.100               
G06  22593154.587 6 118749674.539 6      4749.202 6        36.906               
G19  23108399.922 6 121507464.417 6      3145.167 6        37.220               
G03  22876286.522 6 120325684.636 6      3005.054 6        36.878               
G30  21265645.546 7 111823685.323 7       301.495 7        43.658               
> 2023 01 31 10 44 17.0000000  0  5                                             
G17  21910641.966 7 115213490.618 7      1774.895 7        42.177               
G06  22592204.563 6 118744924.840 6      4750.192 6        37.413               
G19  23107748.909 6 121504316.154 6      3142.650 6        37.642               
G03  22875651.832 6 120322671.903 6      3015.579 6        36.612               
G30  21265532.381 7 111823383.266 7       301.968 7        43.707               
> 2023 01 31 10 44 18.0000000  0  5                                             
G17  21910258.086 7 115211715.751 7      1771.846 7        42.244               
G06  22591242.423 6 118740175.359 6      4745.414 6        37.500               
G19  23107095.572 6 121501167.855 6      3150.648 6        36.926               
G03  22875019.340 6 120319659.480 6      3007.918 6        36.650               
G30  21265415.009 7 111823081.577 7       302.861 7        43.819               
> 2023 01 31 10 44 19.0000000  0  5                                             
G17  21909863.743 6 115209940.675 6      1775.617 6        41.880               
G06  22590284.027 6 118735426.020 6      4748.420 6        37.607               
G19  23106435.196 6 121498019.452 6      3150.279 6        37.158               
G03  22874408.372 6 120316647.288 6      3011.418 6        36.694               
G30  21265304.471 7 111822780.204 7       299.235 7        44.350               
> 2023 01 31 10 44 20.0000000  0  5                                             
G17  21909472.349 6 115208165.521 6      1775.442 6        41.924               
G06  22589314.373 6 118730676.908 6      4747.920 6        37.542               
G19  23105780.028 6 121494871.067 6      3150.240 6        36.802               
G03  22873768.402 6 120313635.398 6      3009.314 6        36.796               
G30  21265194.710 7 111822479.200 7       300.551 7        43.347               
> 2023 01 31 10 44 21.0000000  0  5                                             
G17  21909085.896 7 115206389.642 7      1774.399 7        42.470               
G06  22588366.708 6 118725927.391 6      4750.343 6        37.483               
G19  23105131.615 6 121491721.974 6      3149.875 6        36.526               
G03  22873148.177 6 120310623.187 6      3010.931 6        36.743               
G30  21265079.294 7 111822177.954 7       301.392 7        43.129               
> 2023 01 31 10 44 22.0000000  0  5                                             
G17  21908687.265 7 115204613.669 7      1778.301 7        42.056               
G06  22587410.929 6 118721178.130 6      4748.046 6        37.438               
G19  23104475.706 5 121488572.922 5      3149.729 5        35.943               
G03  22872515.006 6 120307611.292 6      3007.450 6        36.359               
G30  21264963.441 7 111821877.117 7       299.063 7        43.780               
> 2023 01 31 10 44 23.0000000  0  5                                             
G17  21908292.877 7 115202837.924 7      1776.184 7        42.453               
G06  22586448.513 6 118716429.412 6      4750.588 6        37.287               
G19  23103827.400 6 121485424.172 6      3151.457 6        37.071               
G03  22871889.804 6 120304600.035 6      3014.749 6        36.388               
G30  21264853.385 7 111821576.967 7       299.266 7        43.537               
> 2023 01 31 10 44 24.0000000  0  5                                             
G17  21907902.698 7 115201062.127 7      1774.675 7        42.481               
G06  22585477.126 6 118711680.935 6      4745.134 6        37.422               
G19  23103167.371 6 121482275.415 6      3152.875 6        36.851               
G03  22871263.987 6 120301589.125 6      3013.993 6        36.619               
G30  21264741.204 7 111821277.245 7       299.166 7        43.588               
> 2023 01 31 10 44 25.0000000  0  5                                             
G17  21907508.883 6 115199286.260 6      1778.364 6        41.870               
G06  22584523.840 6 118706932.740 6      4735.891 6        37.311               
G19  23102512.561 6 121479126.654 6      3151.233 6        37.286               
G03  22870629.851 6 120298578.524 6      3016.525 6        36.728               
G30  21264637.411 7 111820977.940 7       299.487 7        43.992               
> 2023 01 31 10 44 26.0000000  0  5                                             
G17  21907120.920 6 115197510.017 6      1776.342 6        41.992               
G06  22583573.324 6 118702184.495 6      4747.881 6        37.666               
G19  23101867.909 6 121475977.660 6      3144.874 6        37.016               
G03  22869999.458 6 120295568.018 6      3007.811 6        36.439               
G30  21264515.330 7 111820678.766 7       300.343 7        43.764               
> 2023 01 31 10 44 27.0000000  0  5                                             
G17  21906720.796 6 115195733.588 6      1778.579 6        41.862               
G06  22582617.698 6 118697436.392 6      4735.905 6        37.675               
G19  23101210.553 6 121472828.505 6      3150.319 6        37.515               
G03  22869365.189 6 120292557.656 6      3008.590 6        36.321               
G30  21264406.695 7 111820379.875 7       298.473 7        43.385               
> 2023 01 31 10 44 28.0000000  0  5                                             
G17  21906328.929 6 115193959.018 6      1772.194 6        41.537               
G06  22581657.944 6 118692690.435 6      4746.761 6        37.754               
G19  23100557.806 6 121469681.302 6      3147.696 6        37.729               
G03  22868749.779 6 120289549.570 6      3010.962 6        36.174               
G30  21264301.670 7 111820083.311 7       295.895 7        43.367               
> 2023 01 31 10 44 29.0000000  0  5                                             
G17  21905941.028 7 115192186.093 7      1773.448 7        42.050               
G06  22580696.412 6 118687946.499 6      4742.277 6        37.406               
G19  23099907.615 6 121466535.836 6      3146.530 6        37.895               
G03  22868117.225 6 120286543.584 6      3002.541 6        36.604               
G30  21264188.908 7 111819788.888 7       295.276 7        43.638               
> 2023 01 31 10 44 30.0000000  0  5                                             
G17  21905546.033 6 115190412.848 6      1771.830 6        41.775               
G06  22579738.855 6 118683202.527 6      4740.887 6        37.790               
G19  23099255.887 6 121463390.109 6      3138.939 6        37.509               
G03  22867480.659 6 120283537.637 6      3002.104 6        36.770               
G30  21264073.331 7 111819494.611 7       294.651 7        43.194               
> 2023 01 31 10 44 31.0000000  0  5                                             
G17  21905149.940 6 115188639.190 6      1774.251 6        41.810               
G06  22578775.385 6 118678458.481 6      4741.081 6        36.931               
G19  23098595.100 6 121460244.050 6      3147.483 6        37.204               
G03  22866873.800 6 120280531.693 6      3005.320 6        37.070               
G30  21263966.966 7 111819200.425 7       293.000 7        43.110               
> 2023 01 31 10 44 32.0000000  0  5                                             
G17  21904761.128 6 115186865.471 6      1770.273 6        41.105               
G06  22577827.254 6 118673714.705 6      4746.204 6        37.601               
G19  23097941.656 6 121457098.027 6      3141.093 6        37.307               
G03  22866242.568 6 120277526.093 6      3000.804 6        36.752               
G30  21263855.552 7 111818906.645 7       291.861 7        43.841               
> 2023 01 31 10 44 34.0000000  0  5                                             
G17  21903979.420 6 115183317.233 6      1774.941 6        41.977               
G06  22575904.905 6 118664227.311 6      4745.046 6        37.495               
G19  23096632.080 6 121450805.402 6      3144.938 6        37.062               
G03  22864995.283 6 120271515.332 6      3005.229 6        36.964               
G30  21263627.633 7 111818319.745 7       291.694 7        44.477               
> 2023 01 31 10 44 35.0000000  0  5                                             
G17  21903583.050 7 115181542.775 7      1773.679 7        42.108               
G06  22574944.748 6 118659483.772 6      4736.706 6        37.803               
G19  23095977.448 6 121447658.847 6      3147.085 6        37.145               
G03  22864371.172 6 120268510.196 6      3005.533 6        36.628               
G30  21263525.047 7 111818026.682 7       293.381 7        44.007               
> 2023 01 31 10 44 36.0000000  0  5                                             
G17  21903192.022 6 115179768.096 6      1773.183 6        41.988               
G06  22573991.695 6 118654740.334 6      4740.569 6        37.882               
G19  23095329.062 6 121444512.175 6      3147.651 6        36.919               
G03  22863726.350 6 120265505.266 6      3005.440 6        36.797               
G30  21263419.816 7 111817733.879 7       291.759 7        43.228               
> 2023 01 31 10 44 37.0000000  0  5                                             
G17  21902802.111 6 115177993.166 6      1773.337 6        41.846               
G06  22573024.445 6 118649996.953 6      4744.423 6        37.805               
G19  23094664.969 6 121441365.283 6      3140.190 6        36.421               
G03  22863112.826 6 120262500.524 6      3004.781 6        36.883               
G30  21263299.683 7 111817441.292 7       293.737 7        43.370               
> 2023 01 31 10 44 38.0000000  0  5                                             
G17  21902399.584 7 115176218.197 7      1770.928 7        42.405               
G06  22572074.108 6 118645253.896 6      4736.538 6        37.346               
G19  23094023.623 6 121438218.449 6      3148.688 6        36.582               
G03  22862482.934 6 120259496.093 6      3004.505 6        36.294               
G30  21263187.429 7 111817149.165 7       293.443 7        43.869               
> 2023 01 31 10 44 39.0000000  0  5                                             
G17  21902002.472 6 115174443.099 6      1773.311 6        41.853               
G06  22571120.206 6 118640511.026 6      4741.915 6        37.174               
G19  23093353.239 6 121435071.608 6      3144.450 6        36.472               
G03  22861859.636 6 120256491.986 6      3005.459 6        37.041               
G30  21263082.476 7 111816857.403 7       291.297 7        44.059               
> 2023 01 31 10 44 40.0000000  0  5                                             
G17  21901618.199 6 115172667.729 6      1772.389 6        41.517               
G06  22570169.547 6 118635768.192 6      4739.906 6        37.210               
G19  23092709.856 6 121431924.540 6      3155.214 6        36.186               
G03  22861215.690 6 120253487.988 6      2996.627 6        37.068               
G30  21262971.375 7 111816565.833 7       290.322 7        43.910               
> 2023 01 31 10 44 41.0000000  0  5                                             
G17  21901226.778 6 115170892.066 6      1774.697 6        41.772               
G06  22569212.670 6 118631025.374 6      4737.859 6        37.380               
G19  23092053.080 6 121428777.256 6      3144.381 6        36.220               
G03  22860595.572 6 120250484.083 6      3003.233 6        37.473               
G30  21262855.012 7 111816274.444 7       290.119 7        43.693               
> 2023 01 31 10 44 42.0000000  0  5                                             
G17  21900837.814 6 115169114.056 6      1777.979 6        41.909               
G06  22568248.404 6 118626280.577 6      4752.393 6        37.730               
G19  23091412.824 6 121425627.719 6      3150.504 6        36.539               
G03  22859973.248 6 120247478.249 6      3003.499 6        37.231               
G30  21262751.407 7 111815981.212 7       293.480 7        43.716               
> 2023 01 31 10 44 43.0000000  0  5                                             
G17  21900441.622 6 115167334.701 6      1776.665 6        41.664               
G06  22567290.749 6 118621534.736 6      4746.747 6        38.291               
G19  23090756.495 6 121422476.879 6      3148.088 6        36.672               
G03  22859352.657 6 120244471.484 6      3005.901 6        36.917               
G30  21262641.647 7 111815687.095 7       293.876 7        43.859               
> 2023 01 31 10 44 44.0000000  0  5                                             
G17  21900046.413 6 115165555.867 6      1779.617 6        41.366               
G06  22566331.754 6 118616789.772 6      4746.859 6        37.838               
G19  23090096.244 6 121419326.705 6      3151.030 6        37.048               
G03  22858729.626 6 120241465.676 6      3004.725 6        36.204               
G30  21262531.261 7 111815393.996 7       295.248 7        43.575               
> 2023 01 31 10 44 45.0000000  0  5                                             
G17  21899659.763 6 115163777.465 6      1779.187 6        41.776               
G06  22565380.247 6 118612045.522 6      4745.504 6        37.314               
G19  23089439.557 6 121416176.977 6      3150.186 6        37.639               
G03  22858092.596 6 120238460.674 6      3009.161 6        37.212               
G30  21262409.394 7 111815101.798 7       292.993 7        43.575               
> 2023 01 31 10 44 46.0000000  0  5                                             
G17  21899259.041 6 115161998.898 6      1775.970 6        41.389               
G06  22564412.076 6 118607301.429 6      4744.703 6        37.573               
G19  23088785.730 6 121413027.206 6      3151.515 6        37.534               
G03  22857468.073 6 120235455.908 6      3006.563 6        36.475               
G30  21262301.716 7 111814809.911 7       294.253 7        43.518               
> 2023 01 31 10 44 47.0000000  0  5                                             
G17  21898864.323 6 115160220.126 6      1779.148 6        41.784               
G06  22563458.415 6 118602557.510 6      4736.950 6        36.948               
G19  23088137.558 6 121409877.301 6      3153.564 6        37.453               
G03  22856848.090 6 120232451.371 6      3002.033 6        36.874               
G30  21262198.906 7 111814518.324 7       288.783 7        44.059               
> 2023 01 31 10 44 48.0000000  0  5                                             
G17  21898473.528 6 115158441.168 6      1778.345 6        41.769               
G06  22562504.111 6 118597813.698 6      4744.979 6        37.567               
G19  23087471.132 6 121406727.260 6      3151.734 6        36.957               
G03  22856209.496 6 120229447.042 6      3000.304 6        37.231               
G30  21262085.581 7 111814227.000 7       290.858 7        44.378               
> 2023 01 31 10 44 49.0000000  0  5                                             
G17  21898078.426 6 115156662.407 6      1778.800 6        41.335               
G06  22561547.011 6 118593070.415 6      4736.087 6        37.784               
G19  23086827.982 6 121403577.510 6      3146.469 6        36.562               
G03  22855597.821 6 120226443.292 6      3000.301 6        36.595               
G30  21261972.130 7 111813936.377 7       287.865 7        43.714               
> 2023 01 31 10 44 50.0000000  0  5                                             
G17  21897689.631 6 115154883.355 6      1779.574 6        41.519               
G06  22560587.569 6 118588327.144 6      4740.107 6        37.909               
G19  23086171.992 6 121400427.569 6      3148.622 6        37.106               
G03  22854956.412 6 120223439.684 6      3007.935 6        37.014               
G30  21261866.918 7 111813645.940 7       290.884 7        43.605               
> 2023 01 31 10 44 51.0000000  0  5                                             
G17  21897298.639 6 115153104.541 6      1780.361 6        41.789               
G06  22559629.289 6 118583584.489 6      4737.487 6        37.585               
G19  23085505.379 6 121397277.903 6      3149.729 6        36.872               
G03  22854338.850 6 120220436.716 6      3000.306 6        36.003               
G30  21261754.316 7 111813356.215 7       290.754 7        43.468               
> 2023 01 31 10 44 52.0000000  0  5                                             
G17  21896902.501 6 115151325.715 6      1779.678 6        41.768               
G06  22558668.552 6 118578842.136 6      4736.170 6        37.388               
G19  23084844.154 6 121394128.343 6      3149.309 6        36.509               
G03  22853709.190 6 120217434.171 6      3007.973 6        36.426               
G30  21261646.887 7 111813066.990 7       287.923 7        43.661               
> 2023 01 31 10 44 53.0000000  0  5                                             
G17  21896512.259 6 115149546.679 6      1779.187 6        41.976               
G06  22557722.227 6 118574099.886 6      4743.178 6        37.958               
G19  23084207.159 6 121390978.632 6      3144.673 6        36.287               
G03  22853086.830 6 120214431.789 6      2998.525 6        37.291               
G30  21261531.730 7 111812777.999 7       288.683 7        43.659               
> 2023 01 31 10 44 54.0000000  0  5                                             
G17  21896116.845 6 115147767.424 6      1777.348 6        41.369               
G06  22556758.434 6 118569357.715 6      4743.952 6        37.768               
G19  23083545.451 6 121387828.784 6      3146.910 6        36.375               
G03  22852463.630 6 120211429.631 6      3002.890 6        37.216               
G30  21261425.982 7 111812489.272 7       288.830 7        43.664               
> 2023 01 31 10 44 55.0000000  0  5                                             
G17  21895717.535 6 115145988.250 6      1777.959 6        41.672               
G06  22555792.846 6 118564615.994 6      4739.779 6        37.968               
G19  23082897.699 6 121384679.091 6      3148.942 6        36.021               
G03  22851819.586 6 120208427.927 6      2998.443 6        37.272               
G30  21261317.016 7 111812201.134 7       287.719 7        43.488               
> 2023 01 31 10 44 56.0000000  0  5                                             
G17  21895325.381 6 115144209.055 6      1777.699 6        41.181               
G06  22554834.753 6 118559874.575 6      4740.807 6        37.495               
G19  23082241.584 6 121381529.481 6      3149.235 6        37.127               
G03  22851207.197 6 120205426.624 6      3002.384 6        37.271               
G30  21261206.139 7 111811913.436 7       286.640 7        43.549               
> 2023 01 31 10 44 57.0000000  0  5                                             
G17  21894928.108 6 115142429.443 6      1775.357 6        41.403               
G06  22553885.622 6 118555133.080 6      4741.898 6        37.555               
G19  23081594.851 6 121378379.511 6      3146.352 6        36.640               
G03  22850582.058 6 120202425.335 6      3007.630 6        37.033               
G30  21261096.280 7 111811625.821 7       284.376 7        43.630               
> 2023 01 31 10 44 58.0000000  0  5                                             
G17  21894541.824 6 115140649.670 6      1776.380 6        41.414               
G06  22552925.145 6 118550391.724 6      4739.622 6        37.577               
G19  23080928.068 6 121375229.465 6      3149.182 6        36.894               
G03  22849951.514 6 120199424.266 6      2998.669 6        36.755               
G30  21260990.156 7 111811338.514 7       287.225 7        43.646               
> 2023 01 31 10 44 59.0000000  0  5                                             
G17  21894143.426 6 115138870.010 6      1779.392 6        41.129               
G06  22551967.812 6 118545650.827 6      4740.430 6        37.997               
G19  23080279.673 6 121372079.623 6      3147.855 6        37.073               
G03  22849323.945 6 120196423.751 6      3001.551 6        36.937               
G30  21260877.412 7 111811051.810 7       286.482 7        43.631               
> 2023 01 31 10 45 00.0000000  0  5                                             
G17  21893754.113 6 115137090.015 6      1780.711 6        41.289               
G06  22551012.972 6 118540909.935 6      4743.238 6        37.947               
G19  23079631.581 6 121368929.518 6      3146.082 6        37.153               
G03  22848689.934 6 120193423.263 6      3006.919 6        37.149               
G30  21260765.239 7 111810765.265 7       287.389 7        43.782               
> 2023 01 31 10 45 01.0000000  0  5                                             
G17  21893362.612 6 115135309.791 6      1780.516 6        40.960               
G06  22550065.216 6 118536169.103 6      4740.436 6        37.785               
G19  23078977.539 6 121365779.239 6      3149.789 6        36.808               
G03  22848066.591 5 120190422.996 5      2994.380 5        35.683               
G30  21260661.536 7 111810478.932 7       282.705 7        43.947               
> 2023 01 31 10 45 02.0000000  0  5                                             
G17  21892960.657 6 115133529.596 6      1781.269 6        41.392               
G06  22549099.012 6 118531428.682 6      4736.946 6        38.236               
G19  23078327.643 6 121362629.091 6      3150.593 6        36.848               
G03  22847450.699 6 120187423.134 6      2999.111 6        36.660               
G30  21260549.202 7 111810193.141 7       283.129 7        44.020               
> 2023 01 31 10 45 03.0000000  0  5                                             
G17  21892572.890 6 115131749.361 6      1781.832 6        41.106               
G06  22548143.099 6 118526688.492 6      4738.716 6        37.837               
G19  23077655.875 6 121359478.965 6      3147.867 6        36.630               
G03  22846821.227 6 120184423.685 6      3000.397 6        36.813               
G30  21260444.588 7 111809907.790 7       285.979 7        44.131               
> 2023 01 31 10 45 04.0000000  0  5                                             
G17  21892178.137 6 115129968.794 6      1779.014 6        41.574               
G06  22547186.249 6 118521948.336 6      4736.847 6        38.010               
G19  23077014.243 6 121356328.585 6      3154.764 6        36.341               
G03  22846203.200 6 120181424.274 6      3000.862 6        36.581               
G30  21260325.491 7 111809622.563 7       287.137 7        44.037               
> 2023 01 31 10 45 05.0000000  0  5                                             
G17  21891774.753 6 115128188.418 6      1781.467 6        41.810               
G06  22546233.598 6 118517208.669 6      4739.178 6        37.955               
G19  23076358.405 6 121353178.461 6      3153.428 6        36.421               
G03  22845571.387 5 120178425.483 5      3002.563 5        35.941               
G30  21260226.479 7 111809338.011 7       282.471 7        43.646               
> 2023 01 31 10 45 06.0000000  0  5                                             
G17  21891391.301 6 115126408.306 6      1781.702 6        41.521               
G06  22545270.877 6 118512469.614 6      4735.452 6        37.516               
G19  23075697.832 6 121350028.737 6      3148.386 6        37.100               
G03  22844933.070 6 120175427.371 6      2993.131 6        36.645               
G30  21260110.330 7 111809054.223 7       282.807 7        43.842               
> 2023 01 31 10 45 07.0000000  0  5                                             
G17  21891000.157 6 115124627.696 6      1779.353 6        41.712               
G06  22544325.579 6 118507730.373 6      4744.978 6        37.803               
G19  23075039.358 6 121346878.553 6      3149.146 6        37.007               
G03  22844313.506 5 120172429.158 5      2999.920 5        35.993               
G30  21260005.966 7 111808770.385 7       284.952 7        43.688               
> 2023 01 31 10 45 08.0000000  0  5                                             
G17  21890602.178 6 115122846.952 6      1780.936 6        41.672               
G06  22543356.703 6 118502991.335 6      4740.018 6        37.398               
G19  23074399.576 6 121343728.313 6      3150.076 6        36.567               
G03  22843697.999 6 120169431.227 6      3000.784 6        36.710               
G30  21259894.213 7 111808486.927 7       284.593 7        43.824               
> 2023 01 31 10 45 09.0000000  0  5                                             
G17  21890209.319 6 115121066.251 6      1780.984 6        41.733               
G06  22542398.923 6 118498252.686 6      4737.015 6        37.159               
G19  23073742.559 6 121340578.200 6      3150.077 6        36.235               
G03  22843056.831 6 120166433.747 6      2997.790 6        36.578               
G30  21259790.957 7 111808204.016 7       278.890 7        43.318               
> 2023 01 31 10 45 10.0000000  0  5                                             
G17  21889813.976 6 115119285.239 6      1779.490 6        41.191               
G06  22541445.575 6 118493514.052 6      4734.423 6        37.712               
G19  23073076.875 6 121337427.889 6      3149.458 6        36.273               
G03  22842446.604 6 120163436.375 6      3000.470 6        36.867               
G30  21259680.580 7 111807921.228 7       282.812 7        43.616               
> 2023 01 31 10 45 11.0000000  0  5                                             
G17  21889422.564 6 115117503.840 6      1782.589 6        41.414               
G06  22540486.437 6 118488775.329 6      4737.950 6        37.791               
G19  23072422.404 6 121334277.231 6      3152.340 6        36.771               
G03  22841810.664 6 120160439.024 6      2997.156 6        36.501               
G30  21259565.003 7 111807638.549 7       282.385 7        43.464               
> 2023 01 31 10 45 12.0000000  0  5                                             
G17  21889023.888 6 115115722.499 6      1778.675 6        41.013               
G06  22539527.970 6 118484037.025 6      4736.625 6        37.958               
G19  23071779.977 6 121331126.689 6      3147.415 6        36.340               
G03  22841194.808 6 120157442.111 6      2996.972 6        36.808               
G30  21259462.471 7 111807356.410 7       281.191 7        43.290               
> 2023 01 31 10 45 13.0000000  0  5                                             
G17  21888632.226 6 115113941.219 6      1782.272 6        41.331               
G06  22538573.969 6 118479299.109 6      4736.694 6        37.351               
G19  23071125.989 6 121327976.323 6      3152.321 6        36.551               
G03  22840562.709 6 120154445.679 6      2996.809 6        36.988               
G30  21259350.789 7 111807074.812 7       281.183 7        43.241               
> 2023 01 31 10 45 14.0000000  0  5                                             
G17  21888242.368 6 115112159.551 6      1781.499 6        41.409               
G06  22537618.959 6 118474561.118 6      4739.013 6        37.691               
G19  23070460.019 6 121324825.641 6      3149.038 6        36.719               
G03  22839932.719 6 120151449.306 6      2993.831 6        36.636               
G30  21259246.211 7 111806793.287 7       282.014 7        43.941               
> 2023 01 31 10 45 15.0000000  0  5                                             
G17  21887840.869 6 115110377.885 6      1780.048 6        41.606               
G06  22536671.508 6 118469823.462 6      4733.611 6        37.718               
G19  23069818.736 6 121321675.031 6      3150.336 6        36.740               
G03  22839327.602 6 120148453.290 6      2995.696 6        36.049               
G30  21259138.988 7 111806512.251 7       280.550 7        43.731               
> 2023 01 31 10 45 16.0000000  0  5                                             
G17  21887447.724 7 115108596.273 7      1779.116 7        42.172               
G06  22535713.603 6 118465086.180 6      4745.695 6        37.643               
G19  23069165.659 6 121318524.559 6      3151.600 6        36.849               
G03  22838683.745 6 120145457.786 6      2995.091 6        36.660               
G30  21259029.165 7 111806231.750 7       283.676 7        43.696               
> 2023 01 31 10 45 17.0000000  0  5                                             
G17  21887056.598 6 115106814.410 6      1784.663 6        41.402               
G06  22534752.044 6 118460348.983 6      4739.780 6        38.058               
G19  23068491.139 6 121315373.902 6      3148.048 6        36.067               
G03  22838061.778 6 120142462.405 6      3000.874 6        36.881               
G30  21258923.684 7 111805951.487 7       282.607 7        44.073               
> 2023 01 31 10 45 18.0000000  0  5                                             
G17  21886666.758 6 115105032.245 6      1778.877 6        41.685               
G06  22533795.301 6 118455611.819 6      4735.137 6        37.181               
G19  23067844.217 6 121312223.046 6      3149.142 6        36.580               
G03  22837445.101 6 120139467.163 6      2995.062 6        36.875               
G30  21258812.271 7 111805671.397 7       280.728 7        43.643               
> 2023 01 31 10 45 19.0000000  0  5                                             
G17  21886273.586 6 115103250.018 6      1780.665 6        41.456               
G06  22532840.952 6 118450874.952 6      4736.842 6        37.036               
G19  23067192.731 6 121309072.183 6      3153.897 6        36.637               
G03  22836818.237 6 120136472.286 6      2991.781 6        36.113               
G30  21258706.093 7 111805391.732 7       280.349 7        43.121               
> 2023 01 31 10 45 20.0000000  0  5                                             
G17  21885875.411 6 115101467.799 6      1781.620 6        41.970               
G06  22531881.413 6 118446138.391 6      4737.335 6        37.742               
G19  23066538.707 6 121305921.443 6      3162.545 6        36.473               
G03  22836203.543 6 120133477.801 6      2995.786 6        37.119               
G30  21258596.904 7 111805112.556 7       278.762 7        43.500               
> 2023 01 31 10 45 21.0000000  0  5                                             
G17  21885482.953 7 115099685.364 7      1783.117 7        42.026               
G06  22530922.087 6 118441401.941 6      4741.441 6        37.953               
G19  23065881.627 5 121302770.558 5      3152.626 5        35.876               
G03  22835564.833 6 120130483.533 6      2988.995 6        37.129               
G30  21258489.851 7 111804833.640 7       277.726 7        43.503               
> 2023 01 31 10 45 22.0000000  0  5                                             
G17  21885086.779 6 115097902.975 6      1782.408 6        41.941               
G06  22529977.978 6 118436665.910 6      4733.118 6        37.429               
G19  23065226.397 6 121299619.790 6      3157.049 6        36.367               
G03  22834951.523 6 120127489.723 6      2989.633 6        37.014               
G30  21258374.489 7 111804555.273 7       279.097 7        43.768               
> 2023 01 31 10 45 23.0000000  0  5                                             
G17  21884697.190 6 115096120.957 6      1787.657 6        41.950               
G06  22529006.117 6 118431930.548 6      4735.649 6        37.913               
G19  23064572.775 6 121296469.451 6      3148.582 6        36.502               
G03  22834319.031 6 120124496.675 6      2992.198 6        37.161               
G30  21258273.555 7 111804277.732 7       278.118 7        43.896               
> 2023 01 31 10 45 24.0000000  0  5                                             
G17  21884306.108 7 115094338.646 7      1782.995 7        42.223               
G06  22528050.562 6 118427195.199 6      4732.922 6        37.549               
G19  23063918.295 6 121293318.936 6      3151.932 6        36.124               
G03  22833707.294 6 120121503.749 6      2993.527 6        37.082               
G30  21258166.207 7 111804000.385 7       276.961 7        43.809               
> 2023 01 31 10 45 25.0000000  0  5                                             
G17  21883910.694 6 115092555.869 6      1785.778 6        41.654               
G06  22527099.564 6 118422459.762 6      4729.455 6        37.562               
G19  23063270.587 6 121290167.987 6      3144.528 6        36.707               
G03  22833067.940 6 120118510.779 6      2990.670 6        36.782               
G30  21258056.402 7 111803723.054 7       276.484 7        43.222               
> 2023 01 31 10 45 26.0000000  0  5                                             
G17  21883512.000 7 115090773.055 7      1778.225 7        42.021               
G06  22526148.298 6 118417724.622 6      4730.672 6        37.630               
G19  23062622.237 6 121287017.083 6      3146.692 6        36.234               
G03  22832444.865 6 120115518.195 6      2998.506 6        36.565               
G30  21257951.430 7 111803446.168 7       277.153 7        43.487               
> 2023 01 31 10 45 27.0000000  0  5                                             
G17  21883120.302 6 115088990.402 6      1780.572 6        41.904               
G06  22525191.045 6 118412989.963 6      4729.940 6        37.493               
G19  23061963.102 6 121283866.432 6      3151.524 6        36.383               
G03  22831818.842 6 120112526.189 6      2991.483 6        36.169               
G30  21257843.573 7 111803169.918 7       275.958 7        43.841               
> 2023 01 31 10 45 28.0000000  0  5                                             
G17  21882727.684 7 115087207.332 7      1782.449 7        42.299               
G06  22524236.946 6 118408255.194 6      4724.046 6        38.324               
G19  23061306.076 6 121280715.453 6      3154.647 6        36.624               
G03  22831203.933 6 120109534.151 6      2989.494 6        36.621               
G30  21257738.360 7 111802893.733 7       274.715 7        43.647               
> 2023 01 31 10 45 29.0000000  0  5                                             
G17  21882328.937 7 115085424.089 7      1784.620 7        42.033               
G06  22523282.088 6 118403520.582 6      4740.303 6        37.872               
G19  23060653.955 6 121277564.359 6      3152.803 6        36.474               
G03  22830572.701 6 120106542.361 6      2985.404 6        37.594               
G30  21257620.648 7 111802617.847 7       278.269 7        43.692               
> 2023 01 31 10 45 30.0000000  0  5                                             
G17  21881938.499 6 115083641.039 6      1785.850 6        41.692               
G06  22522317.313 6 118398786.503 6      4738.042 6        37.679               
G19  23059997.045 6 121274413.569 6      3156.301 6        36.812               
G03  22829939.128 6 120103551.176 6      2988.410 6        37.322               
G30  21257518.500 7 111802342.646 7       272.370 7        43.707               
> 2023 01 31 10 45 31.0000000  0  5                                             
G17  21881541.011 7 115081857.696 7      1784.816 7        42.281               
G06  22521364.233 6 118394052.445 6      4737.690 6        37.379               
G19  23059338.232 6 121271262.518 6      3143.381 6        36.153               
G03  22829324.693 6 120100560.071 6      2996.790 6        36.764               
G30  21257418.451 7 111802067.608 7       276.472 7        43.756               
> 2023 01 31 10 45 32.0000000  0  5                                             
G17  21881145.927 6 115080072.990 6      1784.713 6        41.708               
G06  22520407.829 6 118389317.388 6      4739.196 6        37.602               
G19  23058684.369 5 121268110.237 5      3152.676 5        35.902               
G03  22828700.581 6 120097568.097 6      2994.028 6        37.552               
G30  21257305.796 7 111801791.718 7       275.886 7        43.843               
> 2023 01 31 10 45 33.0000000  0  5                                             
G17  21880754.828 6 115078289.219 6      1782.353 6        41.916               
G06  22519459.270 6 118384583.588 6      4737.194 6        37.745               
G19  23058033.186 6 121264958.943 6      3155.525 6        36.620               
G03  22828090.801 6 120094577.408 6      2993.238 6        37.175               
G30  21257198.814 7 111801517.220 7       274.705 7        43.581               
> 2023 01 31 10 45 34.0000000  0  5                                             
G17  21880356.081 7 115076505.375 7      1784.056 7        42.108               
G06  22518499.909 6 118379850.060 6      4732.440 6        38.079               
G19  23057382.932 6 121261807.648 6      3154.529 6        36.378               
G03  22827466.154 6 120091587.119 6      2987.552 6        36.859               
G30  21257095.486 7 111801243.143 7       277.503 7        43.308               
> 2023 01 31 10 45 35.0000000  0  5                                             
G17  21879967.483 6 115074721.386 6      1783.837 6        41.752               
G06  22517547.258 6 118375116.693 6      4729.338 6        37.771               
G19  23056717.409 5 121258656.286 5      3153.820 5        35.401               
G03  22826807.984 6 120088597.071 6      2997.229 6        36.624               
G30  21256986.753 7 111800969.397 7       275.038 7        43.687               
> 2023 01 31 10 45 36.0000000  0  5                                             
G17  21879570.692 6 115072937.087 6      1783.837 6        41.795               
G06  22516582.411 6 118370383.388 6      4738.678 6        38.208               
G19  23056064.064 6 121255504.724 6      3150.292 6        36.446               
G03  22826197.560 6 120085607.118 6      2991.245 6        36.270               
G30  21256875.590 7 111800695.826 7       271.241 7        43.595               
> 2023 01 31 10 45 37.0000000  0  5                                             
G17  21879177.404 6 115071153.104 6      1785.867 6        41.663               
G06  22515631.359 6 118365650.699 6      4736.051 6        38.608               
G19  23055410.871 6 121252353.533 6      3149.244 6        36.434               
G03  22825590.201 6 120082617.914 6      2992.635 6        37.594               
G30  21256770.806 7 111800423.039 7       271.105 7        43.408               
> 2023 01 31 10 45 38.0000000  0  5                                             
G17  21878780.033 6 115069368.769 6      1782.796 6        41.597               
G06  22514670.425 6 118360918.017 6      4731.368 6        37.679               
G19  23054755.355 6 121249202.092 6      3150.555 6        36.549               
G03  22824957.745 6 120079628.776 6      2991.642 6        36.951               
G30  21256666.523 7 111800150.393 7       274.688 7        42.742               
> 2023 01 31 10 45 39.0000000  0  5                                             
G17  21878384.484 6 115067584.285 6      1784.731 6        41.806               
G06  22513718.221 6 118356185.504 6      4725.943 6        37.711               
G19  23054103.600 6 121246050.558 6      3154.246 6        36.363               
G03  22824339.298 6 120076639.893 6      2988.872 6        36.780               
G30  21256556.646 7 111799878.086 7       269.600 7        43.349               
> 2023 01 31 10 45 40.0000000  0  5                                             
G17  21877983.458 6 115065799.899 6      1784.598 6        41.632               
G06  22512767.973 6 118351453.409 6      4730.039 6        38.463               
G19  23053448.289 6 121242899.178 6      3159.131 6        36.629               
G03  22823712.015 6 120073651.489 6      2989.922 6        37.413               
G30  21256449.173 7 111799606.331 7       271.212 7        43.688               
> 2023 01 31 10 45 41.0000000  0  5                                             
G17  21877599.167 6 115064015.633 6      1782.301 6        41.539               
G06  22511816.698 6 118346721.752 6      4735.657 6        38.270               
G19  23052807.399 6 121239748.032 6      3148.368 6        36.238               
G03  22823094.872 6 120070663.640 6      2985.964 6        36.939               
G30  21256347.704 7 111799335.177 7       270.804 7        43.372               
> 2023 01 31 10 45 42.0000000  0  5                                             
G17  21877204.709 6 115062230.985 6      1785.613 6        41.734               
G06  22510857.578 6 118341990.077 6      4734.571 6        37.564               
G19  23052139.642 6 121236596.592 6      3150.252 6        36.249               
G03  22822463.194 6 120067675.803 6      2995.621 6        36.883               
G30  21256242.267 7 111799064.123 7       272.249 7        43.002               
> 2023 01 31 10 45 43.0000000  0  5                                             
G17  21876806.015 6 115060445.252 6      1790.424 6        41.937               
G06  22509913.021 6 118337257.617 6      4735.089 6        37.671               
G19  23051487.218 6 121233444.130 6      3158.474 6        36.902               
G03  22821838.600 6 120064687.364 6      2992.265 6        36.675               
G30  21256122.572 7 111798792.460 7       275.688 7        43.227               
> 2023 01 31 10 45 44.0000000  0  5                                             
G17  21876411.029 6 115058658.660 6      1787.846 6        41.777               
G06  22508943.511 6 118332524.669 6      4734.176 6        37.956               
G19  23050827.145 6 121230290.860 6      3164.280 6        36.255               
G03  22821216.231 6 120061698.432 6      2986.418 6        36.813               
G30  21256029.135 7 111798520.425 7       270.608 7        43.498               
> 2023 01 31 10 45 45.0000000  0  5                                             
G17  21876021.493 7 115056872.809 7      1787.873 7        42.018               
G06  22507990.127 6 118327792.761 6      4735.263 6        37.681               
G19  23050168.457 6 121227138.434 6      3154.675 6        36.272               
G03  22820591.208 6 120058710.648 6      2981.150 6        36.602               
G30  21255921.894 7 111798249.594 7       271.889 7        43.512               
> 2023 01 31 10 45 46.0000000  0  5                                             
G17  21875621.701 6 115055086.020 6      1785.749 6        41.901               
G06  22507040.371 6 118323060.233 6      4736.335 6        38.058               
G19  23049522.268 6 121223985.160 6      3150.063 6        36.114               
G03  22819966.292 6 120055722.340 6      2988.104 6        37.380               
G30  21255807.577 7 111797978.283 7       269.779 7        43.316               
> 2023 01 31 10 45 47.0000000  0  5                                             
G17  21875227.492 6 115053298.723 6      1788.624 6        41.717               
G06  22506073.353 6 118318327.542 6      4731.197 6        38.050               
G19  23048875.490 6 121220831.410 6      3150.971 6        36.352               
G03  22819350.660 6 120052733.937 6      2986.921 6        36.759               
G30  21255709.011 7 111797706.975 7       271.204 7        43.578               
> 2023 01 31 10 45 48.0000000  0  5                                             
G17  21874830.782 6 115051511.516 6      1786.811 6        41.329               
G06  22505124.570 6 118313595.280 6      4733.337 6        37.688               
G19  23048216.704 6 121217677.830 6      3158.483 6        36.679               
G03  22818725.878 6 120049746.038 6      2991.665 6        37.367               
G30  21255600.662 7 111797436.223 7       270.320 7        43.584               
> 2023 01 31 10 45 49.0000000  0  5                                             
G17  21874446.795 6 115049724.372 6      1785.703 6        41.614               
G06  22504173.304 6 118308863.412 6      4734.630 6        38.410               
G19  23047562.135 6 121214524.415 6      3155.018 6        36.476               
G03  22818104.081 6 120046758.619 6      2989.062 6        37.109               
G30  21255497.594 7 111797166.017 7       271.655 7        43.359               
> 2023 01 31 10 45 50.0000000  0  5                                             
G17  21874045.867 6 115047937.284 6      1786.883 6        41.564               
G06  22503216.614 6 118304131.940 6      4735.217 6        37.746               
G19  23046886.007 6 121211371.116 6      3150.662 6        36.760               
G03  22817488.726 6 120043771.646 6      2984.593 6        36.581               
G30  21255386.833 7 111796896.342 7       271.395 7        43.144               
> 2023 01 31 10 45 51.0000000  0  5                                             
G17  21873649.568 6 115046149.971 6      1785.824 6        41.390               
G06  22502254.707 6 118299400.579 6      4732.037 6        38.110               
G19  23046254.060 6 121208217.712 6      3163.333 6        36.716               
G03  22816851.284 6 120040784.908 6      2991.719 6        36.854               
G30  21255280.280 7 111796626.937 7       271.665 7        43.962               
> 2023 01 31 10 45 52.0000000  0  5                                             
G17  21873257.826 6 115044363.640 6      1782.498 6        41.193               
G06  22501312.616 6 118294670.552 6      4723.954 6        37.875               
G19  23045590.351 6 121205065.344 6      3153.899 6        36.611               
G03  22816229.290 6 120037799.574 6      2984.684 6        37.191               
G30  21255177.479 7 111796358.987 7       267.261 7        44.360               
> 2023 01 31 10 45 53.0000000  0  5                                             
G17  21872859.731 6 115042577.352 6      1788.115 6        41.237               
G06  22500357.249 6 118289940.860 6      4729.566 6        38.096               
G19  23044934.674 6 121201913.100 6      3147.732 6        36.571               
G03  22815605.920 6 120034814.683 6      2983.454 6        36.937               
G30  21255064.645 7 111796091.561 7       267.339 7        43.193               
> 2023 01 31 10 45 54.0000000  0  5                                             
G17  21872469.507 6 115040791.435 6      1786.414 6        41.310               
G06  22499389.221 6 118285211.922 6      4724.778 6        37.522               
G19  23044285.287 6 121198761.291 6      3145.034 6        36.156               
G03  22814989.064 6 120031830.582 6      2985.111 6        36.804               
G30  21254966.946 7 111795824.988 7       267.136 7        43.742               
> 2023 01 31 10 45 55.0000000  0  5                                             
G17  21872074.887 6 115039005.210 6      1782.657 6        41.514               
G06  22498444.736 6 118280482.984 6      4729.213 6        38.126               
G19  23043622.596 6 121195609.270 6      3158.989 6        36.824               
G03  22814351.881 6 120028846.563 6      2997.970 6        36.658               
G30  21254860.760 7 111795558.578 7       267.104 7        43.781               
> 2023 01 31 10 45 56.0000000  0  5                                             
G17  21871674.309 6 115037218.883 6      1784.632 6        41.220               
G06  22497478.219 6 118275754.284 6      4716.863 6        37.856               
G19  23042966.186 6 121192457.256 6      3153.617 6        36.393               
G03  22813730.852 6 120025862.923 6      2976.650 6        36.738               
G30  21254754.412 7 111795292.550 7       265.456 7        43.874               
> 2023 01 31 10 45 57.0000000  0  5                                             
G17  21871281.369 6 115035432.418 6      1784.997 6        41.125               
G06  22496528.069 6 118271025.785 6      4729.892 6        37.339               
G19  23042327.548 6 121189305.148 6      3161.473 6        36.964               
G03  22813110.145 6 120022879.547 6      2975.116 6        36.926               
G30  21254645.107 7 111795026.861 7       266.424 7        43.426               
> 2023 01 31 10 45 58.0000000  0  5                                             
G17  21870887.544 6 115033645.893 6      1790.010 6        41.332               
G06  22495580.135 6 118266297.542 6      4725.149 6        37.741               
G19  23041669.976 6 121186153.075 6      3158.259 6        36.300               
G03  22812504.984 6 120019896.478 6      2984.463 6        36.211               
G30  21254545.130 7 111794761.592 7       265.551 7        43.664               
> 2023 01 31 10 45 59.0000000  0  5                                             
G17  21870486.501 6 115031859.477 6      1787.350 6        40.835               
G06  22494618.031 6 118261569.755 6      4726.529 6        37.571               
G19  23041006.008 6 121183001.160 6      3153.244 6        36.604               
G03  22811873.698 6 120016913.948 6      2981.058 6        36.836               
G30  21254438.970 7 111794496.894 7       263.504 7        43.931               
> 2023 01 31 10 46 00.0000000  0  5                                             
G17  21870091.408 6 115030073.065 6      1786.673 6        41.286               
G06  22493667.882 6 118256842.301 6      4728.333 6        37.829               
G19  23040341.879 6 121179849.336 6      3144.077 6        36.399               
G03  22811245.780 6 120013931.840 6      2982.961 6        37.088               
G30  21254328.191 7 111794232.686 7       262.855 7        44.351               
> 2023 01 31 10 46 01.0000000  0  5                                             
G17  21869698.942 6 115028286.657 6      1786.920 6        41.600               
G06  22492715.275 6 118252115.215 6      4719.861 6        37.696               
G19  23039697.227 6 121176697.633 6      3150.108 6        36.985               
G03  22810631.095 6 120010950.180 6      2981.004 6        36.134               
G30  21254226.320 7 111793968.984 7       265.589 7        44.200               
> 2023 01 31 10 46 02.0000000  0  5                                             
G17  21869307.163 6 115026500.152 6      1782.640 6        41.450               
G06  22491760.301 6 118247388.318 6      4722.407 6        38.090               
G19  23039042.095 6 121173545.860 6      3153.822 6        36.629               
G03  22810006.099 6 120007968.842 6      2980.284 6        36.739               
G30  21254123.636 7 111793705.633 7       262.680 7        43.769               
> 2023 01 31 10 46 03.0000000  0  5                                             
G17  21868916.314 6 115024713.889 6      1785.888 6        41.205               
G06  22490795.043 6 118242661.993 6      4727.106 6        37.738               
G19  23038397.122 6 121170394.425 6      3146.975 6        36.411               
G03  22809384.078 6 120004988.115 6      2974.477 6        36.968               
G30  21254010.739 7 111793443.009 7       262.496 7        42.932               
> 2023 01 31 10 46 04.0000000  0  5                                             
G17  21868511.527 6 115022927.342 6      1787.842 6        41.223               
G06  22489850.040 6 118237935.766 6      4725.376 6        37.120               
G19  23037741.463 6 121167242.796 6      3153.249 6        36.635               
G03  22808757.653 6 120002007.575 6      2984.539 6        36.925               
G30  21253912.370 7 111793180.583 7       262.480 7        43.285               
> 2023 01 31 10 46 05.0000000  0  5                                             
G17  21868129.085 6 115021140.567 6      1790.199 6        41.731               
G06  22488886.203 6 118233209.645 6      4724.528 6        37.120               
G19  23037074.564 6 121164091.054 6      3147.053 6        36.608               
G03  22808141.029 6 119999027.224 6      2976.266 6        37.516               
G30  21253805.451 7 111792918.417 7       263.599 7        43.340               
> 2023 01 31 10 46 06.0000000  0  5                                             
G17  21867731.250 6 115019353.930 6      1788.473 6        41.719               
G06  22487947.248 6 118228483.963 6      4727.651 6        37.613               
G19  23036439.124 6 121160939.479 6      3148.876 6        37.127               
G03  22807530.283 6 119996047.400 6      2977.400 6        36.937               
G30  21253698.853 7 111792656.867 7       260.225 7        43.536               
> 2023 01 31 10 46 07.0000000  0  5                                             
G17  21867332.029 6 115017567.216 6      1786.830 6        41.565               
G06  22486980.337 6 118223758.544 6      4731.033 6        37.736               
G19  23035764.050 6 121157787.904 6      3150.712 6        36.805               
G03  22806916.786 6 119993067.905 6      2978.086 6        36.606               
G30  21253602.441 7 111792395.704 7       260.711 7        43.672               
> 2023 01 31 10 46 08.0000000  0  5                                             
G17  21866937.606 7 115015780.533 7      1788.623 7        42.436               
G06  22486038.184 6 118219033.505 6      4727.505 6        37.322               
G19  23035116.039 6 121154636.490 6      3149.709 6        36.836               
G03  22806268.489 6 119990088.901 6      2977.168 6        37.644               
G30  21253497.460 7 111792135.069 7       262.639 7        43.900               
> 2023 01 31 10 46 09.0000000  0  5                                             
G17  21866546.292 7 115013993.639 7      1788.490 7        42.327               
G06  22485079.824 6 118214308.627 6      4721.358 6        37.769               
G19  23034469.743 6 121151484.911 6      3153.966 6        36.847               
G03  22805649.595 6 119987110.076 6      2978.159 6        37.536               
G30  21253393.668 7 111791874.712 7       257.485 7        43.379               
> 2023 01 31 10 46 10.0000000  0  5                                             
G17  21866151.664 6 115012207.103 6      1787.121 6        41.850               
G06  22484130.237 6 118209584.402 6      4723.524 6        38.050               
G19  23033808.687 6 121148333.761 6      3147.592 6        36.899               
G03  22805017.908 6 119984132.038 6      2976.985 6        37.245               
G30  21253285.677 7 111791615.157 7       259.321 7        43.557               
> 2023 01 31 10 46 11.0000000  0  5                                             
G17  21865757.196 6 115010420.710 6      1785.198 6        41.962               
G06  22483172.288 6 118204860.645 6      4728.564 6        37.443               
G19  23033152.742 6 121145182.849 6      3155.337 6        37.020               
G03  22804417.946 6 119981154.606 6      2973.022 6        36.911               
G30  21253179.365 7 111791356.244 7       258.953 7        43.243               
> 2023 01 31 10 46 12.0000000  0  5                                             
G17  21865353.097 7 115008634.345 7      1786.288 7        42.075               
G06  22482213.695 6 118200137.314 6      4718.858 6        37.256               
G19  23032497.450 6 121142032.034 6      3150.958 6        36.716               
G03  22803785.186 6 119978177.582 6      2978.138 6        36.932               
G30  21253077.744 7 111791097.855 7       258.601 7        43.686               
> 2023 01 31 10 46 13.0000000  0  5                                             
G17  21864962.024 7 115006847.069 7      1784.570 7        42.093               
G06  22481258.140 6 118195413.368 6      4719.249 6        37.539               
G19  23031835.661 6 121138880.388 6      3148.343 6        36.526               
G03  22803172.216 6 119975200.055 6      2972.838 6        37.116               
G30  21252969.243 7 111790839.010 7       259.327 7        43.819               
> 2023 01 31 10 46 14.0000000  0  5                                             
G17  21864572.846 7 115005059.700 7      1787.064 7        42.322               
G06  22480307.794 6 118190689.672 6      4725.185 6        37.552               
G19  23031208.342 6 121135728.758 6      3147.209 6        36.920               
G03  22802552.313 6 119972222.868 6      2983.969 6        36.330               
G30  21252871.437 7 111790580.557 7       257.810 7        43.379               
> 2023 01 31 10 46 15.0000000  0  5                                             
G17  21864180.433 7 115003272.237 7      1789.199 7        42.449               
G06  22479361.817 6 118185966.229 6      4722.913 6        37.540               
G19  23030534.886 6 121132577.078 6      3158.579 6        36.665               
G03  22801921.715 6 119969245.982 6      2976.885 6        37.134               
G30  21252768.976 7 111790322.491 7       257.961 7        43.779               
> 2023 01 31 10 46 16.0000000  0  5                                             
G17  21863789.120 7 115001485.196 7      1786.089 7        42.186               
G06  22478403.760 6 118181243.487 6      4722.879 6        36.615               
G19  23029888.572 6 121129425.920 6      3151.073 6        37.022               
G03  22801295.147 6 119966269.953 6      2979.185 6        36.400               
G30  21252658.563 7 111790065.324 7       259.013 7        44.280               
> 2023 01 31 10 46 17.0000000  0  5                                             
G17  21863388.112 7 114999697.599 7      1789.790 7        42.272               
G06  22477444.274 6 118176520.587 6      4726.422 6        37.416               
G19  23029226.838 6 121126274.252 6      3146.642 6        37.239               
G03  22800682.168 6 119963293.801 6      2977.645 6        36.732               
G30  21252561.874 7 111789808.077 7       258.044 7        43.509               
> 2023 01 31 10 46 18.0000000  0  5                                             
G17  21862990.178 6 114997909.674 6      1785.749 6        41.615               
G06  22476494.652 6 118171797.654 6      4726.116 6        38.232               
G19  23028563.388 6 121123122.391 6      3154.121 6        37.660               
G03  22800067.590 6 119960317.740 6      2977.986 6        36.601               
G30  21252455.187 7 111789550.960 7       258.939 7        43.476               
> 2023 01 31 10 46 19.0000000  0  5                                             
G17  21862588.062 7 114996121.423 7      1787.847 7        42.269               
G06  22475537.533 6 118167074.758 6      4726.144 6        38.029               
G19  23027930.592 6 121119970.271 6      3154.374 6        36.991               
G03  22799443.585 6 119957341.756 6      2980.584 6        36.932               
G30  21252352.369 7 111789294.025 7       256.036 7        43.411               
> 2023 01 31 10 46 20.0000000  0  5                                             
G17  21862199.563 7 114994333.071 7      1786.597 7        42.109               
G06  22474587.455 6 118162352.104 6      4722.638 6        38.008               
G19  23027252.632 6 121116818.072 6      3150.774 6        36.541               
G03  22798817.491 6 119954366.081 6      2974.149 6        36.962               
G30  21252245.637 7 111789037.444 7       256.344 7        43.688               
> 2023 01 31 10 46 21.0000000  0  5                                             
G17  21861806.954 6 114992545.025 6      1787.437 6        41.981               
G06  22473624.949 6 118157630.096 6      4724.435 6        38.083               
G19  23026611.179 6 121113666.304 6      3150.379 6        36.472               
G03  22798199.857 6 119951391.167 6      2964.050 6        36.314               
G30  21252145.419 7 111788781.670 7       257.023 7        43.321               
> 2023 01 31 10 46 22.0000000  0  5                                             
G17  21861415.774 7 114990756.882 7      1788.746 7        42.418               
G06  22472678.150 6 118152908.316 6      4721.677 6        37.735               
G19  23025947.800 6 121110514.532 6      3144.708 6        37.076               
G03  22797577.577 6 119948416.568 6      2970.960 6        36.199               
G30  21252042.011 7 111788526.282 7       257.713 7        43.527               
> 2023 01 31 10 46 23.0000000  0  5                                             
G17  21861012.819 7 114988968.618 7      1787.157 7        42.524               
G06  22471727.170 6 118148186.746 6      4718.438 6        38.057               
G19  23025293.303 6 121107362.694 6      3151.351 6        37.061               
G03  22796961.953 6 119945442.252 6      2976.621 6        36.023               
G30  21251938.888 7 111788271.231 7       254.213 7        43.503               
> 2023 01 31 10 46 24.0000000  0  5                                             
G17  21860619.897 7 114987179.281 7      1785.402 7        42.321               
G06  22470769.113 6 118143464.451 6      4729.813 6        37.866               
G19  23024637.965 6 121104209.872 6      3148.554 6        36.966               
G03  22796329.408 6 119942467.308 6      2971.522 6        36.416               
G30  21251838.170 7 111788015.605 7       253.126 7        44.054               
> 2023 01 31 10 46 25.0000000  0  5                                             
G17  21860226.439 7 114985391.204 7      1793.758 7        42.525               
G06  22469823.315 6 118138743.770 6      4719.000 6        38.265               
G19  23023980.671 6 121101058.396 6      3152.695 6        37.245               
G03  22795708.951 6 119939494.026 6      2975.577 6        36.533               
G30  21251730.625 7 111787761.707 7       252.607 7        43.676               
> 2023 01 31 10 46 26.0000000  0  5                                             
G17  21859822.340 7 114983602.511 7      1791.529 7        42.408               
G06  22468863.507 6 118134022.798 6      4722.106 6        37.869               
G19  23023344.516 6 121097906.374 6      3158.264 6        37.077               
G03  22795094.605 6 119936520.546 6      2974.124 6        36.459               
G30  21251620.078 7 111787507.671 7       253.129 7        43.643               
> 2023 01 31 10 46 27.0000000  0  5                                             
G17  21859432.277 6 114981814.394 6      1786.280 6        41.909               
G06  22467914.367 6 118129302.735 6      4718.795 6        38.174               
G19  23022679.628 6 121094755.013 6      3151.452 6        37.402               
G03  22794465.848 5 119933548.074 5      2971.011 5        35.941               
G30  21251522.442 7 111787254.683 7       252.856 7        43.478               
> 2023 01 31 10 46 28.0000000  0  5                                             
G17  21859037.184 7 114980026.190 7      1788.932 7        42.184               
G06  22466960.331 6 118124582.912 6      4718.131 6        37.885               
G19  23022024.522 6 121091603.673 6      3149.897 6        37.726               
G03  22793847.624 6 119930575.945 6      2968.749 6        36.016               
G30  21251426.780 7 111787002.078 7       250.684 7        43.464               
> 2023 01 31 10 46 29.0000000  0  5                                             
G17  21858636.417 7 114978238.090 7      1788.686 7        42.463               
G06  22466022.180 6 118119863.549 6      4718.086 6        37.906               
G19  23021363.806 6 121088452.481 6      3148.380 6        36.724               
G03  22793227.837 6 119927604.336 6      2984.502 6        36.901               
G30  21251316.358 7 111786750.068 7       251.904 7        43.290               
> 2023 01 31 10 46 30.0000000  0  5                                             
G17  21858253.886 7 114976449.952 7      1787.990 7        42.828               
G06  22465055.234 6 118115144.484 6      4721.748 6        37.922               
G19  23020715.277 6 121085301.347 6      3152.646 6        37.201               
G03  22792613.285 6 119924633.086 6      2970.449 6        36.593               
G30  21251214.425 7 111786498.489 7       253.528 7        43.482               
> 2023 01 31 10 46 31.0000000  0  5                                             
G17  21857855.845 7 114974661.710 7      1790.893 7        42.424               
G06  22464101.966 6 118110425.634 6      4717.321 6        37.745               
G19  23020066.471 6 121082150.165 6      3154.040 6        37.801               
G03  22791996.027 6 119921662.143 6      2975.385 6        37.253               
G30  21251116.976 7 111786247.280 7       249.740 7        43.036               
> 2023 01 31 10 46 32.0000000  0  5                                             
G17  21857452.577 6 114972873.209 6      1788.151 6        41.939               
G06  22463157.231 6 118105706.884 6      4720.984 6        37.950               
G19  23019417.521 6 121078998.834 6      3153.516 6        36.562               
G03  22791381.958 6 119918691.415 6      2971.254 6        36.930               
G30  21251007.555 7 111785996.298 7       251.732 7        43.669               
> 2023 01 31 10 46 33.0000000  0  5                                             
G17  21857062.308 7 114971084.643 7      1790.822 7        42.609               
G06  22462200.702 6 118100988.398 6      4714.538 6        37.761               
G19  23018756.609 6 121075847.496 6      3147.350 6        37.062               
G03  22790750.869 6 119915720.998 6      2970.670 6        36.815               
G30  21250907.390 7 111785745.723 7       249.544 7        43.288               
> 2023 01 31 10 46 34.0000000  0  5                                             
G17  21856670.208 7 114969295.634 7      1785.547 7        42.503               
G06  22461241.046 6 118096269.838 6      4712.647 6        37.733               
G19  23018114.360 6 121072695.799 6      3152.114 6        37.322               
G03  22790142.831 6 119912750.599 6      2967.122 6        36.500               
G30  21250808.869 7 111785495.183 7       252.782 7        43.478               
> 2023 01 31 10 46 35.0000000  0  5                                             
G17  21856266.654 7 114967506.714 7      1788.945 7        42.347               
G06  22460287.993 6 118091551.661 6      4714.917 6        37.652               
G19  23017443.119 6 121069544.286 6      3154.180 6        37.255               
G03  22789515.297 6 119909780.697 6      2969.573 6        36.048               
G30  21250701.691 7 111785245.211 7       246.662 7        43.415               
> 2023 01 31 10 46 36.0000000  0  5                                             
G17  21855877.118 7 114965717.439 7      1789.109 7        42.365               
G06  22459328.560 6 118086833.475 6      4717.850 6        37.813               
G19  23016787.130 6 121066392.449 6      3150.775 6        36.843               
G03  22788886.611 6 119906810.833 6      2975.358 6        37.121               
G30  21250596.433 7 111784995.355 7       248.731 7        42.708               
> 2023 01 31 10 46 37.0000000  0  5                                             
G17  21855483.196 7 114963928.468 7      1789.848 7        42.200               
G06  22458382.833 6 118082115.951 6      4714.941 6        37.700               
G19  23016128.674 6 121063241.060 6      3149.372 6        37.366               
G03  22788262.920 6 119903841.759 6      2964.375 6        36.596               
G30  21250498.154 7 111784746.302 7       249.201 7        43.124               
> 2023 01 31 10 46 38.0000000  0  5                                             
G17  21855086.226 7 114962139.540 7      1785.363 7        42.537               
G06  22457437.205 6 118077398.808 6      4717.266 6        38.062               
G19  23015492.707 6 121060089.748 6      3156.931 6        37.208               
G03  22787653.604 6 119900873.096 6      2963.395 6        36.536               
G30  21250400.223 7 111784497.740 7       250.653 7        43.462               
> 2023 01 31 10 46 39.0000000  0  5                                             
G17  21854693.099 7 114960350.443 7      1787.172 7        42.084               
G06  22456484.205 6 118072681.822 6      4716.169 6        37.311               
G19  23014822.904 6 121056938.391 6      3155.262 6        37.221               
G03  22787038.302 6 119897904.662 6      2971.808 6        36.660               
G30  21250289.319 7 111784249.517 7       249.922 7        43.216               
> 2023 01 31 10 46 40.0000000  0  5                                             
G17  21854294.468 6 114958561.456 6      1787.334 6        41.970               
G06  22455531.438 6 118067965.283 6      4717.143 6        37.707               
G19  23014176.358 6 121053787.213 6      3149.472 6        37.205               
G03  22786423.099 6 119894936.845 6      2971.030 6        36.532               
G30  21250193.898 7 111784001.873 7       247.663 7        43.467               
> 2023 01 31 10 46 41.0000000  0  5                                             
G17  21853900.608 6 114956772.751 6      1787.312 6        41.936               
G06  22454575.802 6 118063249.389 6      4720.508 6        38.082               
G19  23013521.021 6 121050636.373 6      3149.989 6        37.559               
G03  22785791.312 6 119891969.661 6      2974.653 6        36.690               
G30  21250092.339 7 111783754.986 7       245.523 7        43.161               
> 2023 01 31 10 46 42.0000000  0  5                                             
G17  21853503.603 7 114954983.826 7      1789.991 7        42.103               
G06  22453627.860 6 118058533.592 6      4715.597 6        37.848               
G19  23012858.053 6 121047485.413 6      3150.424 6        37.821               
G03  22785168.791 6 119889002.710 6      2969.672 6        36.363               
G30  21249987.055 7 111783508.345 7       245.066 7        43.638               
> 2023 01 31 10 46 43.0000000  0  5                                             
G17  21853097.619 6 114953194.725 6      1787.885 6        41.458               
G06  22452679.211 6 118053817.979 6      4715.122 6        38.548               
G19  23012202.501 6 121044334.321 6      3145.396 6        37.005               
G03  22784555.848 6 119886036.020 6      2967.266 6        36.652               
G30  21249889.428 7 111783262.027 7       245.269 7        43.253               
> 2023 01 31 10 46 44.0000000  0  5                                             
G17  21852713.363 7 114951405.682 7      1789.226 7        42.276               
G06  22451718.367 6 118049102.730 6      4716.766 6        38.976               
G19  23011562.093 6 121041183.386 6      3148.415 6        36.354               
G03  22783937.303 5 119883069.785 5      2965.864 5        35.844               
G30  21249789.933 7 111783016.209 7       246.140 7        43.648               
> 2023 01 31 10 46 45.0000000  0  5                                             
G17  21852319.056 6 114949616.441 6      1793.666 6        41.834               
G06  22450770.138 6 118044387.678 6      4713.222 6        37.665               
G19  23010896.052 6 121038032.367 6      3153.001 6        37.321               
G03  22783312.852 6 119880103.748 6      2969.265 6        36.588               
G30  21249677.796 7 111782770.712 7       245.813 7        43.421               
> 2023 01 31 10 46 46.0000000  0  5                                             
G17  21851917.388 7 114947827.076 7      1786.896 7        42.260               
G06  22449825.189 6 118039672.795 6      4714.733 6        38.109               
G19  23010244.449 6 121034881.233 6      3153.257 6        36.586               
G03  22782695.451 6 119877138.061 6      2972.532 6        36.996               
G30  21249581.848 7 111782525.545 7       247.965 7        43.955               
> 2023 01 31 10 46 47.0000000  0  5                                             
G17  21851526.663 6 114946037.730 6      1787.240 6        41.888               
G06  22448862.754 6 118034958.291 6      4715.946 6        37.887               
G19  23009590.711 6 121031730.241 6      3160.189 6        36.413               
G03  22782087.395 6 119874172.795 6      2970.264 6        36.960               
G30  21249486.454 7 111782280.858 7       242.957 7        43.373               
> 2023 01 31 10 46 48.0000000  0  5                                             
G17  21851134.063 6 114944248.345 6      1791.405 6        41.684               
G06  22447907.083 6 118030244.096 6      4708.292 6        37.856               
G19  23008935.776 6 121028579.294 6      3154.037 6        36.348               
G03  22781473.245 6 119871207.945 6      2959.818 6        36.547               
G30  21249379.562 7 111782036.646 7       244.492 7        42.863               
> 2023 01 31 10 46 49.0000000  0  5                                             
G17  21850734.306 7 114942459.153 7      1788.859 7        42.223               
G06  22446960.954 6 118025530.404 6      4716.535 6        37.776               
G19  23008272.960 6 121025428.607 6      3159.508 6        36.576               
G03  22780842.853 6 119868243.668 6      2963.009 6        36.827               
G30  21249279.477 7 111781793.082 7       242.186 7        43.173               
> 2023 01 31 10 46 50.0000000  0  5                                             
G17  21850340.714 6 114940669.615 6      1789.444 6        41.922               
G06  22446005.059 6 118020816.724 6      4711.173 6        38.099               
G19  23007629.050 6 121022277.665 6      3152.035 6        36.690               
G03  22780227.015 6 119865279.502 6      2965.161 6        36.290               
G30  21249175.489 7 111781549.657 7       242.862 7        43.201               
> 2023 01 31 10 46 51.0000000  0  5                                             
G17  21849947.042 6 114938879.720 6      1790.550 6        41.746               
G06  22445055.616 6 118016103.043 6      4709.850 6        37.909               
G19  23006967.816 6 121019126.453 6      3155.948 6        37.210               
G03  22779597.132 6 119862315.384 6      2958.105 6        36.227               
G30  21249073.859 7 111781306.343 7       240.542 7        43.299               
> 2023 01 31 10 46 52.0000000  0  5                                             
G17  21849549.510 6 114937090.366 6      1789.769 6        41.978               
G06  22444114.731 6 118011390.239 6      4708.510 6        37.775               
G19  23006331.768 6 121015975.866 6      3156.300 6        36.745               
G03  22778975.683 6 119859352.247 6      2961.819 6        36.341               
G30  21248972.506 7 111781064.049 7       243.064 7        43.004               
> 2023 01 31 10 46 53.0000000  0  5                                             
G17  21849155.864 6 114935300.879 6      1786.914 6        41.856               
G06  22443154.825 6 118006677.624 6      4713.944 6        38.357               
G19  23005660.152 6 121012825.221 6      3148.876 6        36.160               
G03  22778372.568 6 119856389.371 6      2958.694 6        36.212               
G30  21248879.846 7 111780822.106 7       242.306 7        43.404               
> 2023 01 31 10 46 54.0000000  0  5                                             
G17  21848763.023 7 114933511.396 7      1785.447 7        42.062               
G06  22442197.242 6 118001965.347 6      4713.784 6        37.765               
G19  23005010.845 6 121009674.649 6      3150.245 6        36.447               
G03  22777745.704 5 119853426.929 5      2967.022 5        35.968               
G30  21248770.014 7 111780580.631 7       244.541 7        43.165               
> 2023 01 31 10 46 55.0000000  0  5                                             
G17  21848368.332 6 114931722.056 6      1793.493 6        41.898               
G06  22441248.647 6 117997253.607 6      4712.264 6        37.560               
G19  23004354.516 6 121006524.310 6      3152.666 6        36.365               
G03  22777143.358 6 119850465.101 6      2958.825 6        36.424               
G30  21248673.753 7 111780339.804 7       239.825 7        43.155               
> 2023 01 31 10 46 56.0000000  0  5                                             
G17  21847973.194 7 114929932.402 7      1789.697 7        42.217               
G06  22440303.090 6 117992541.863 6      4708.854 6        37.829               
G19  23003695.158 6 121003373.722 6      3153.307 6        36.362               
G03  22776514.127 6 119847503.348 6      2962.202 6        36.951               
G30  21248574.384 7 111780099.119 7       241.185 7        43.353               
> 2023 01 31 10 46 57.0000000  0  5                                             
G17  21847570.051 6 114928142.819 6      1789.561 6        41.923               
G06  22439339.128 6 117987830.512 6      4709.143 6        38.152               
G19  23003043.305 6 121000223.301 6      3146.730 6        36.616               
G03  22775891.624 6 119844542.110 6      2955.471 6        36.350               
G30  21248468.465 7 111779858.983 7       238.165 7        43.102               
> 2023 01 31 10 46 58.0000000  0  5                                             
G17  21847188.011 6 114926353.422 6      1789.729 6        41.766               
G06  22438398.493 6 117983119.703 6      4715.388 6        37.329               
G19  23002393.962 6 120997073.130 6      3151.874 6        36.973               
G03  22775273.874 6 119841581.460 6      2959.746 6        36.996               
G30  21248369.158 7 111779619.502 7       238.730 7        43.319               
> 2023 01 31 10 46 59.0000000  0  5                                             
G17  21846787.084 6 114924563.932 6      1792.763 6        41.858               
G06  22437449.228 6 117978409.145 6      4709.054 6        37.640               
G19  23001740.287 6 120993922.965 6      3149.731 6        36.758               
G03  22774659.849 6 119838621.152 6      2957.838 6        36.474               
G30  21248273.389 7 111779380.411 7       239.322 7        43.348               
> 2023 01 31 10 47 00.0000000  0  5                                             
G17  21846389.936 6 114922774.452 6      1789.835 6        41.530               
G06  22436485.865 6 117973698.920 6      4711.176 6        37.962               
G19  23001082.215 6 120990772.889 6      3150.088 6        36.778               
G03  22774037.972 6 119835661.286 6      2957.411 6        36.799               
G30  21248168.006 7 111779141.816 7       241.361 7        43.813               
> 2023 01 31 10 47 01.0000000  0  5                                             
G17  21845998.399 6 114920984.830 6      1791.184 6        41.661               
G06  22435548.045 6 117968988.927 6      4709.840 6        37.662               
G19  23000422.955 6 120987622.720 6      3162.675 6        37.036               
G03  22773418.479 6 119832701.676 6      2959.164 6        37.004               
G30  21248070.325 7 111778903.538 7       239.483 7        42.959               
> 2023 01 31 10 47 02.0000000  0  5                                             
G17  21845596.078 6 114919195.212 6      1789.946 6        41.687               
G06  22434591.578 6 117964279.264 6      4702.199 6        37.862               
G19  22999769.601 6 120984472.639 6      3152.250 6        37.212               
G03  22772793.805 6 119829742.553 6      2960.083 6        37.384               
G30  21247968.829 7 111778665.745 7       239.415 7        43.095               
> 2023 01 31 10 47 03.0000000  0  5                                             
G17  21845202.173 6 114917406.297 6      1790.270 6        41.772               
G06  22433643.841 6 117959570.645 6      4710.627 6        38.351               
G19  22999122.957 6 120981323.357 6      3144.484 6        36.760               
G03  22772190.332 6 119826784.485 6      2962.386 6        36.741               
G30  21247869.487 7 111778429.137 7       237.709 7        43.426               
> 2023 01 31 10 47 04.0000000  0  5                                             
G17  21844807.357 6 114915617.088 6      1788.324 6        41.857               
G06  22432688.965 6 117954862.071 6      4709.058 6        38.186               
G19  22998470.345 6 120978173.883 6      3145.231 6        36.629               
G03  22771559.181 6 119823826.574 6      2955.626 6        37.121               
G30  21247769.322 7 111778192.696 7       236.103 7        43.231               
> 2023 01 31 10 47 05.0000000  0  5                                             
G17  21844409.378 6 114913828.094 6      1790.669 6        41.855               
G06  22431736.010 6 117950154.062 6      4710.433 6        38.120               
G19  22997812.175 6 120975024.649 6      3150.234 6        36.265               
G03  22770960.336 6 119820869.333 6      2956.395 6        36.899               
G30  21247666.021 7 111777956.966 7       235.994 7        43.438               
> 2023 01 31 10 47 06.0000000  0  5                                             
G17  21844017.546 6 114912039.384 6      1787.602 6        41.635               
G06  22430790.417 6 117945446.688 6      4708.922 6        37.999               
G19  22997154.711 6 120971875.853 6      3145.563 6        36.974               
G03  22770328.889 6 119817912.789 6      2958.091 6        36.892               
G30  21247566.240 7 111777722.012 7       233.195 7        43.112               
> 2023 01 31 10 47 07.0000000  0  5                                             
G17  21843624.347 7 114910251.429 7      1791.736 7        42.052               
G06  22429841.483 6 117940740.407 6      4710.469 6        37.442               
G19  22996507.129 6 120968727.831 6      3150.575 6        36.299               
G03  22769708.111 6 119814957.410 6      2954.212 6        37.431               
G30  21247473.303 7 111777488.265 7       235.074 7        43.659               
> 2023 01 31 10 47 08.0000000  0  5                                             
G17  21843221.669 6 114908466.020 6      1783.395 6        41.835               
G06  22428878.164 6 117936037.000 6      4713.620 6        38.045               
G19  22995857.876 6 120965582.440 6      3143.237 6        36.738               
G03  22769085.867 6 119812005.028 6      2954.175 6        37.106               
G30  21247373.031 7 111777257.536 7       231.987 7        43.592               
> 2023 01 31 10 47 09.0000000  0  5                                             
G17  21842830.275 7 114906679.614 7      1784.808 7        42.330               
G06  22427940.442 6 117931332.956 6      4698.226 6        37.534               
G19  22995199.438 6 120962436.164 6      3142.938 6        36.637               
G03  22768483.341 6 119809052.067 6      2952.838 6        36.250               
G30  21247264.861 7 111777026.295 7       227.343 7        43.456               
> 2023 01 31 10 47 10.0000000  0  5                                             
G17  21842432.671 6 114904894.773 6      1783.104 6        41.807               
G06  22426989.381 6 117926630.798 6      4702.404 6        37.603               
G19  22994559.879 5 120959291.512 5      3135.721 5        35.889               
G03  22767856.076 5 119806101.051 5      2947.095 5        35.858               
G30  21247175.695 7 111776797.083 7       228.739 7        43.582               
> 2023 01 31 10 47 11.0000000  0  5                                             
G17  21842046.646 7 114903111.523 7      1784.214 7        42.261               
G06  22426033.594 6 117921930.602 6      4697.381 6        37.503               
G19  22993897.027 6 120956148.523 6      3139.509 6        36.861               
G03  22767246.921 6 119803152.140 6      2947.748 6        36.860               
G30  21247073.958 7 111776569.953 7       227.325 7        43.175               
> 2023 01 31 10 47 12.0000000  0  5                                             
G17  21841647.435 7 114901329.577 7      1781.744 7        42.337               
G06  22425084.186 6 117917232.039 6      4695.599 6        37.331               
G19  22993247.086 6 120953006.930 6      3145.291 6        36.825               
G03  22766630.627 6 119800204.901 6      2942.807 6        36.639               
G30  21246975.026 7 111776344.601 7       226.259 7        43.550               
